location,osm_id,name,lat,lon,label,distance_m,lot_area_sqft,highway_type,lanes,dist_bus_stop_m,dist_hospital_m,dist_school_m,dist_park_m,res_ratio,com_ratio,median_income
times_square,796338420,,40.7589488,-73.9853854,retail,24.6,1900.0,secondary,1.0,86.2,428.4,329.1,29.1,0.0,1.0,
times_square,258619240,TKTS,40.7591532,-73.9849271,retail,31.7,3324.0,residential,2.0,41.7,420.4,345.6,41.6,0.0,1.0,
times_square,2613887631,American Eagle Outfitters,40.7588653,-73.9854906,retail,33.1,4350.0,secondary,1.0,98.9,428.0,322.1,31.3,0.0,1.0,
times_square,3595084281,Grand Slam New York,40.7591248,-73.9853772,retail,34.2,5200.0,secondary,1.0,76.0,442.3,332.8,45.0,0.0,1.0,
times_square,1740694091,McDonald's,40.7587753,-73.98472,food_drink,34.9,3234.0,secondary,3.0,70.4,376.7,302.4,35.9,0.0,1.0,
times_square,9472159125,Aerie,40.7588805,-73.9855136,retail,34.9,4350.0,secondary,1.0,99.4,430.6,324.3,33.8,0.0,1.0,
times_square,2689589692,Express,40.7586261,-73.9848141,retail,38.8,3234.0,secondary,1.0,88.4,369.3,286.4,31.7,0.0,1.0,
times_square,368051619,Palace Theater,40.7589003,-73.9846166,leisure_entertainment,40.7,3324.0,secondary,3.0,55.3,382.2,316.0,47.3,0.0,1.0,
times_square,9674241492,Pelé Soccer,40.7587927,-73.9846231,retail,41.9,3234.0,secondary,3.0,67.2,373.1,304.0,44.2,0.0,1.0,
times_square,2689589690,Blue Fin,40.7592453,-73.9853339,food_drink,43.2,1503.0,residential,1.0,68.3,450.0,326.9,38.9,0.0,1.0,
times_square,10791218142,T-Mobile,40.7586585,-73.9856026,retail,50.1,4350.0,secondary,1.0,120.8,419.2,302.6,40.1,0.0,1.0,
times_square,1273406878,Tempo by Hilton New York Times Square,40.7590118,-73.9844836,hospitality,53.4,21758.0,residential,1.0,42.9,385.6,328.4,62.5,0.0,0.1339643371252371,
times_square,13270526606,Dos Caminos,40.7593685,-73.9853155,food_drink,55.2,1503.0,residential,1.0,64.7,459.5,319.6,28.3,0.0,1.0,
times_square,12917522702,,40.7584069,-73.9849369,retail,56.5,2090.0,secondary,1.0,114.6,359.0,263.2,43.0,0.0,1.0,
times_square,11904533394,Sephora,40.7585627,-73.9856354,retail,58.7,4350.0,secondary,1.0,130.2,414.4,293.3,46.7,0.0,1.0,
times_square,2774949518,Disney Store,40.7582885,-73.9849989,retail,68.5,2090.0,secondary,5.0,128.7,353.9,250.9,53.8,0.0,1.0,
times_square,11904533393,Invicta,40.7584618,-73.9856847,retail,69.3,74287.0,secondary,1.0,141.2,410.5,284.0,56.2,0.0,0.0527141542635053,
times_square,6418252593,Olive Garden,40.7594748,-73.9847715,food_drink,69.6,13899.0,residential,2.0,20.9,441.8,350.9,23.3,0.0,0.1189765607274377,
times_square,258619232,W Times Square Hotel,40.7593907,-73.9856571,hospitality,72.0,11293.0,residential,1.0,93.4,480.0,295.6,53.7,0.0,0.040357496826694,
times_square,266149327,Lunt-Fontanne Theatre,40.7591832,-73.9858937,leisure_entertainment,73.9,13957.0,secondary,1.0,115.8,477.0,296.9,78.6,0.0,1.0,
times_square,12244426994,Revel & Rye,40.7585073,-73.9858673,food_drink,78.0,74287.0,secondary,1.0,148.6,425.7,294.3,66.9,0.0,0.0527141542635053,
times_square,6596037385,Hershey's Chocolate World,40.7592676,-73.984303,food_drink,78.6,16066.0,residential,1.0,25.0,401.3,357.3,68.1,0.0,0.208179222633184,
times_square,11904533392,Levi's,40.7583484,-73.9857286,retail,81.0,74287.0,secondary,1.0,153.1,405.7,273.5,67.1,0.0,0.0527141542635053,
times_square,5985838985,Starbucks,40.7596521,-73.9852254,food_drink,84.3,11293.0,living_street,1.0,63.9,479.9,308.0,21.6,0.0,0.040357496826694,
times_square,6308385086,Lids,40.7595892,-73.9846122,retail,87.0,13899.0,secondary,3.0,22.3,445.4,356.2,37.1,0.0,0.1189765607274377,
times_square,266149308,Cambria Hotel,40.7594728,-73.9858534,hospitality,89.9,3300.0,residential,1.0,110.3,486.9,277.1,68.5,0.0,1.0,
times_square,11904533390,U.S. Polo Assn.,40.7580901,-73.9851597,retail,90.2,38700.0,secondary,5.0,153.9,350.2,231.8,74.4,0.0,1.0,
times_square,12175585351,Marquis Theatre,40.7589043,-73.9861848,leisure_entertainment,91.4,74287.0,secondary,1.0,148.3,465.8,304.9,89.0,0.0,0.0527141542635053,
times_square,11904533391,Swatch,40.7582271,-73.9857669,retail,93.6,74287.0,secondary,1.0,165.5,400.4,262.3,79.0,0.0,0.0527141542635053,
times_square,5083429924,Big bus welcome center,40.7596799,-73.9845482,retail,98.4,13899.0,secondary,3.0,31.7,451.3,356.3,44.6,0.0,0.1189765607274377,
times_square,10861612276,Top Quality Setting,40.7584383,-73.9840932,retail,99.1,5025.0,secondary,1.0,113.0,314.6,267.2,95.6,0.0,1.0,
times_square,2689589693,Havana Central,40.7583345,-73.9841851,food_drink,99.5,5025.0,secondary,1.0,121.8,310.2,254.8,93.7,0.0,1.0,
times_square,12237980160,Anita Gelato,40.7583401,-73.9860225,food_drink,99.6,74287.0,secondary,1.0,170.8,425.3,282.7,87.3,0.0,0.0527141542635053,
times_square,2639531871,Renaissance New York Times Square Hotel,40.7597371,-73.9845837,hospitality,102.7,13899.0,residential,3.0,38.2,458.3,350.8,37.7,0.0,0.1189765607274377,
times_square,163474780,New York Marriott Marquis,40.7585993,-73.9862598,hospitality,103.2,74287.0,secondary,1.0,169.2,454.9,317.4,95.5,0.0,0.0527141542635053,
times_square,4755575515,Sunglass Hut,40.7579715,-73.9852247,health,103.8,38700.0,secondary,1.0,168.2,346.7,220.3,87.9,0.0,1.0,
times_square,5884955676,LOL Times Square Comedy Club,40.7595077,-73.9841594,leisure_entertainment,104.1,1975.0,secondary,3.0,35.0,418.8,384.8,74.4,0.0,1.0,
times_square,2676979135,Bond 45,40.7592344,-73.9863162,food_drink,109.0,5020.0,secondary,1.0,150.0,462.7,269.1,111.8,,,
times_square,2722857800,Friedman's,40.75965,-73.985965,food_drink,110.7,3300.0,residential,1.0,122.7,466.0,257.3,79.1,0.0,1.0,
times_square,4385240481,The View Restaurant & Lounge,40.758744,-73.986415,food_drink,112.1,74287.0,secondary,1.0,159.9,443.9,308.8,106.9,0.0,0.0527141542635053,
times_square,13730649404,,40.7581141,-73.9841954,finance,115.9,3013.0,secondary,1.0,145.4,292.2,230.3,107.5,0.0,1.0,
times_square,12917522703,Le Marais,40.7580768,-73.9842248,food_drink,117.5,3013.0,secondary,1.0,149.0,290.8,225.9,108.6,0.0,1.0,
times_square,13730649403,Val Pizza,40.7580884,-73.984193,food_drink,118.2,3013.0,secondary,1.0,148.3,289.9,227.5,109.6,0.0,1.0,
times_square,1317983503,SpringHill Suites,40.7593769,-73.9863656,hospitality,119.1,5020.0,secondary,1.0,149.9,463.0,254.3,112.6,,,
times_square,5884922536,Fossil,40.7599806,-73.9850423,retail,120.3,50657.0,living_street,1.0,77.3,499.1,304.4,15.5,0.0,1.0,
times_square,266170755,Lyceum Theatre,40.7578829,-73.984494,leisure_entertainment,124.1,10125.0,secondary,1.0,168.2,292.2,202.8,111.9,0.0,1.0,
times_square,12917522704,Abbondanza Cafe,40.7580366,-73.9841496,retail,125.0,1506.0,secondary,1.0,154.7,283.2,222.3,116.2,0.6,0.4,
times_square,266170542,Dervish,40.7585629,-73.9836775,food_drink,125.5,1883.0,residential,1.0,118.0,307.1,287.7,125.6,0.0,1.0,
times_square,12246616257,Starbucks,40.7585572,-73.9865632,food_drink,129.0,74287.0,secondary,1.0,158.9,429.0,320.7,121.5,0.0,0.0527141542635053,
times_square,7172247185,Mc Carthy's,40.7580118,-73.9841151,food_drink,129.0,1506.0,secondary,1.0,158.0,279.2,220.1,120.2,0.2,0.8,
times_square,2717293852,Rum House,40.7597407,-73.9861863,food_drink,130.8,29500.0,residential,1.0,143.3,446.0,236.5,99.5,,,
times_square,10960870136,McDonald's,40.7577347,-73.985331,food_drink,131.0,44475.0,secondary,1.0,196.0,339.8,197.9,115.0,0.0,1.0,
times_square,1752822408,Minskoff Theatre,40.758063,-73.9862053,leisure_entertainment,131.6,65764.0,secondary,1.0,203.5,421.8,263.3,118.1,0.0,1.0,
times_square,12917522705,Prime Catch,40.7580046,-73.984058,food_drink,132.7,1506.0,secondary,1.0,160.0,275.4,220.1,124.3,0.5708154506437768,0.4291845493562232,
times_square,143858914,The Hotel Edison NYC,40.7596402,-73.9863369,hospitality,132.8,29500.0,residential,1.0,153.2,446.0,234.6,109.9,,,
times_square,10828709898,LINE FRIENDS,40.7578595,-73.9859259,retail,135.0,65764.0,secondary,1.0,206.4,390.1,231.8,119.7,0.0,1.0,
times_square,13730649402,Walk-Ins,40.7580044,-73.9840133,personal_care,135.3,1506.0,secondary,1.0,161.0,272.8,220.8,127.1,0.6,0.4,
times_square,12917522706,Silky Kitchen,40.757981,-73.9840072,food_drink,137.5,1506.0,secondary,1.0,163.6,270.6,218.4,129.2,0.6,0.4,
times_square,12488728940,Popeyes,40.7576687,-73.9853889,food_drink,139.1,44475.0,secondary,1.0,204.6,340.3,192.7,123.0,0.0,1.0,
times_square,266149330,Richard Rodgers Theatre,40.7590388,-73.9867431,leisure_entertainment,139.2,11296.0,secondary,1.0,122.6,422.6,266.5,138.0,0.0,1.0,
times_square,12495990801,Motto by Hilton Times Square,40.75891,-73.9833914,hospitality,143.9,12050.0,residential,1.0,111.3,331.1,331.4,98.6,0.0,0.0763124283774301,
times_square,12715466601,MOTTO BY HILTON TIMES SQUARE,40.7589115,-73.9833905,hospitality,144.0,12050.0,residential,1.0,111.3,331.2,331.6,98.5,0.0,0.0763124283774301,
times_square,266170769,Hotel Riu Plaza Manhattan Times Square,40.7589411,-73.9833872,hospitality,144.3,12050.0,residential,1.0,110.0,334.2,334.8,95.3,0.0,0.0763124283774301,
times_square,2678783480,M&M'S World,40.7600914,-73.9844166,food_drink,144.4,12550.0,residential,3.0,65.2,486.5,348.8,38.6,0.8208491305028983,0.1791508694971016,
times_square,5528676228,Margon Restaurant,40.7579702,-73.9838946,food_drink,144.9,1506.0,secondary,1.0,160.3,263.4,219.3,137.2,0.0,1.0,
times_square,10793579016,NYC Mega Mart,40.7598702,-73.9839265,retail,146.3,3355.0,residential,1.0,74.4,447.0,396.0,80.1,0.0,1.0,
times_square,10960870137,I Love NY Gifts,40.7575871,-73.9854097,retail,148.3,44475.0,secondary,1.0,212.4,337.5,185.0,132.2,0.0,1.0,
times_square,763650163,Junior's,40.7582151,-73.9866267,food_drink,149.4,65764.0,secondary,1.0,171.6,421.7,297.3,138.6,0.0,1.0,
times_square,10559992345,Little Italy Pizza,40.7597577,-73.9837192,food_drink,150.4,839.0,residential,1.0,80.6,428.8,416.7,67.5,0.0,1.0,
times_square,5401978034,Times Square Gift Shop,40.7597315,-73.983665,retail,152.2,839.0,residential,1.0,83.2,424.5,414.9,62.8,0.0,1.0,
times_square,2717542944,7th Ave Smoke Shop,40.7599243,-73.983887,retail,153.0,3355.0,secondary,3.0,77.2,451.3,397.1,82.5,0.0,1.0,
times_square,266170759,Amor Loco,40.7578443,-73.9839258,food_drink,153.5,1506.0,secondary,1.0,155.6,254.7,205.1,144.6,0.5804195804195804,0.4195804195804196,
times_square,12488728935,Tissot,40.7577063,-73.9860384,retail,154.5,65764.0,secondary,4.0,192.0,390.7,222.4,139.2,0.0,1.0,
times_square,12750167119,TSQ Food Court,40.75971,-73.9836,retail,155.2,3420.0,residential,1.0,87.2,420.3,413.6,57.3,0.0,1.0,
times_square,10793579017,Sarah's Visions,40.7598021,-73.9836881,leisure_entertainment,155.6,839.0,residential,1.0,85.4,432.5,417.4,65.3,0.0,1.0,
times_square,10791218141,Krispy Kreme,40.7603024,-73.9849637,food_drink,156.4,35275.0,residential,2.0,84.1,483.6,297.7,34.3,0.0,0.3293236756802917,
times_square,12968777478,Duane Reade,40.7574988,-73.9848314,health,157.4,44475.0,secondary,1.0,212.2,290.2,162.0,142.7,0.0,1.0,
times_square,7747395789,Paramount Hotel,40.7592445,-73.9869234,hospitality,158.3,11296.0,secondary,1.0,103.3,413.8,239.1,159.1,0.0,1.0,
times_square,12917522000,Museum of Broadway,40.7575933,-73.9843375,leisure_entertainment,158.9,6886.0,secondary,1.0,176.1,261.6,171.4,146.5,0.0,1.0,
times_square,10793579018,Art Ink Tattoo,40.7598393,-73.9836621,personal_care,159.9,839.0,residential,1.0,89.5,435.6,418.1,63.9,0.0,1.0,
times_square,4483086991,Patzeria Perfect Pizza Pasta & Grill,40.7594345,-73.9868675,food_drink,160.3,7531.0,secondary,1.0,108.1,424.7,223.6,154.0,0.0,1.0,
times_square,266149297,Barrymore Theatre,40.760107,-73.9861446,leisure_entertainment,160.5,10050.0,residential,1.0,140.8,419.3,215.5,108.7,0.0,1.0,
times_square,2717543572,Platinum Dolls,40.7599891,-73.9838395,leisure_entertainment,161.0,2500.0,secondary,3.0,71.1,456.5,398.5,83.0,0.1909090909090909,0.8090909090909091,
times_square,6285668319,Sushi By Bou,40.7584918,-73.983254,food_drink,162.0,3766.0,residential,1.0,122.9,283.8,291.4,139.7,0.0,0.0615637860082304,
times_square,13124095520,I'm donut ?,40.757465,-73.9847632,food_drink,162.1,16820.0,secondary,1.0,207.6,283.3,157.5,147.5,0.0,0.0042056421284574,
times_square,4243439483,Haven Rooftop Bar,40.7583844,-73.9832932,food_drink,162.6,3766.0,residential,1.0,120.4,274.4,279.1,152.0,0.0,0.0615637860082304,
times_square,2717323719,Gong Cha,40.7602955,-73.9845027,food_drink,163.1,12550.0,living_street,1.0,51.6,506.9,335.1,42.4,0.8208491305028983,0.1791508694971016,
times_square,266170539,Broadway @ Times Square Hotel,40.7581269,-73.9834365,hospitality,164.4,3766.0,secondary,1.0,123.5,255.0,248.0,160.3,0.0,0.0825688073394495,
times_square,12488728936,Skechers,40.7576209,-73.9860917,retail,164.9,65764.0,residential,1.0,181.8,390.7,217.4,149.6,0.0,1.0,
times_square,12917522701,Starbucks,40.757443,-73.9846875,food_drink,165.7,16820.0,secondary,1.0,200.9,276.6,154.4,151.4,0.0,0.0042056421284574,
times_square,2722857832,Dilli Dilli,40.7598975,-73.9865625,food_drink,165.8,2510.0,residential,1.0,147.1,411.9,201.1,134.9,0.6376021798365122,0.3623978201634877,
times_square,4243439484,Sanctuary Hotel,40.7584738,-73.9832127,hospitality,165.9,3766.0,residential,1.0,118.9,280.6,290.8,141.0,0.0,0.0615637860082304,
times_square,10960870138,Old Navy,40.7574273,-73.9854727,retail,166.7,44475.0,residential,1.0,193.9,334.3,171.2,150.7,0.0,1.0,
times_square,266170765,The Muse New York,40.7577808,-73.9837782,hospitality,167.0,8033.0,secondary,1.0,141.3,241.1,201.9,158.5,0.0,0.0438715791136186,
times_square,10794176923,Lagos TSQ,40.7600479,-73.9837966,food_drink,168.4,2500.0,secondary,3.0,65.8,461.3,400.0,82.3,0.0,1.0,
times_square,12917521999,T45,40.7575283,-73.98419,food_drink,170.7,9510.0,secondary,1.0,162.2,247.3,166.0,158.8,,,
times_square,266170541,James Earl Jones Theatre,40.7591178,-73.9830767,leisure_entertainment,172.1,12050.0,residential,1.0,127.7,343.8,361.7,68.5,0.0,1.0,
times_square,266149329,Music Box Theatre,40.7588726,-73.9871509,leisure_entertainment,172.8,10050.0,secondary,1.0,98.3,385.2,268.1,169.3,0.0,1.0,
times_square,2722857817,Glass House Tavern,40.7599261,-73.9866455,food_drink,173.1,2510.0,residential,1.0,142.2,405.0,193.8,142.5,0.6560196560196561,0.343980343980344,
times_square,260180778,Hyatt Centric Times Square,40.7575691,-73.9840243,hospitality,173.5,9510.0,secondary,1.0,150.2,239.4,173.4,162.6,,,
times_square,266149345,Imperial Theatre,40.7591087,-73.9871438,leisure_entertainment,173.7,18036.0,secondary,1.0,88.0,391.8,244.2,172.7,0.0,1.0,
times_square,12818145480,RT60 Rooftop Bar & Lounge,40.7596608,-73.9832831,food_drink,174.9,13153.0,residential,1.0,110.5,406.6,414.2,31.4,,,
times_square,266149326,Longacre Theatre,40.7603381,-73.9859536,leisure_entertainment,175.3,9990.0,residential,2.0,129.4,414.2,218.1,99.3,0.0,1.0,
times_square,4755575514,Tender,40.7584335,-73.9831005,food_drink,176.2,3581.0,residential,1.0,108.5,272.8,290.5,144.1,0.0,0.1052259118127381,
times_square,11079657105,Bar 54,40.7575137,-73.9840845,food_drink,176.3,9510.0,secondary,1.0,153.2,239.4,166.2,164.9,,,
times_square,266149299,Booth Theatre,40.7583652,-73.9870937,leisure_entertainment,178.1,25305.0,secondary,1.0,129.2,382.9,322.7,169.8,0.0,1.0,
times_square,6426977889,Buffalo Wild Wings,40.7601612,-73.9864034,food_drink,178.1,5028.0,residential,1.0,125.7,399.5,193.8,131.1,0.0,1.0,
times_square,266170604,Hard Rock Hotel New York,40.7597152,-73.9832804,hospitality,178.1,13153.0,residential,1.0,112.5,412.3,420.2,30.4,,,
times_square,2678466841,PlayStation Theater,40.7576451,-73.9864422,leisure_entertainment,179.6,65764.0,residential,1.0,167.5,418.8,238.3,165.1,0.0,1.0,
times_square,5041140405,One Shubert Alley,40.7582063,-73.987028,retail,179.8,25305.0,secondary,1.0,140.0,387.9,317.7,170.0,0.0,1.0,
times_square,266149312,Paramount Hotel,40.7596469,-73.9870077,hospitality,180.9,15062.0,secondary,1.0,101.7,411.3,197.4,166.2,,,
times_square,2722857837,Trattoria Trecolori,40.7599596,-73.9867307,food_drink,181.0,2511.0,residential,1.0,137.7,397.5,186.0,150.5,0.0,1.0,
times_square,12209038072,Le Parisien Bakery,40.7595571,-73.9870682,food_drink,181.2,15062.0,secondary,1.0,93.9,413.6,203.0,170.7,,,
times_square,2678466844,Gap,40.7572995,-73.9855061,retail,181.2,44475.0,residential,1.0,179.5,331.2,160.2,165.2,0.0,1.0,
times_square,9966731697,Hamilton: The Store,40.7595628,-73.9870903,retail,183.1,15062.0,secondary,1.0,92.2,412.1,201.5,172.6,,,
times_square,4462060089,Superdry,40.7600564,-73.9834861,retail,187.1,10050.0,secondary,2.0,77.6,453.7,424.8,60.5,0.0,1.0,
times_square,9815615205,Famous Original Ray's Pizza,40.7604274,-73.9840645,food_drink,190.9,2145.0,secondary,1.0,20.1,508.8,367.5,46.7,0.0,1.0,
times_square,266151929,Hyatt Regency Times Square,40.7606357,-73.9851119,hospitality,193.0,35275.0,residential,2.0,89.5,453.1,276.4,50.8,0.0,0.3293236756802917,
times_square,266170544,45 Times Square Hotel,40.7574472,-73.9838008,hospitality,195.1,4715.0,secondary,1.0,128.2,216.3,166.4,184.7,0.0,0.0811891515994436,
times_square,1758217485,The Playwright,40.7604723,-73.9840506,food_drink,195.9,1020.0,secondary,1.0,15.1,505.6,367.6,44.9,0.0,1.0,
times_square,2610440246,Burger Man,40.7604501,-73.9839884,food_drink,196.1,1020.0,secondary,1.0,18.3,508.9,373.3,50.7,0.0,1.0,
times_square,266149301,Lena Horne Theatre,40.7599493,-73.9869854,leisure_entertainment,197.1,10050.0,residential,1.0,119.0,385.1,172.0,170.6,0.0,1.0,
times_square,2721574108,Hurley's,40.7605232,-73.9861219,food_drink,200.0,3360.0,residential,2.0,104.7,390.3,197.4,120.9,0.4433194549583649,0.5566805450416351,
times_square,266149334,Shubert Theatre,40.7581388,-73.9872563,leisure_entertainment,200.4,25305.0,residential,1.0,125.6,368.7,312.4,190.7,0.0,1.0,
times_square,266149302,Gerald Schoenfeld Theatre,40.7585014,-73.9874322,leisure_entertainment,201.4,9698.0,secondary,1.0,98.0,355.6,296.4,194.7,0.0,1.0,
times_square,6615272821,For five coffee roasters,40.7578879,-73.9831141,food_drink,201.6,26100.0,secondary,1.0,94.7,218.4,236.2,185.0,0.0,1.0,
times_square,266151926,Walter Kerr Theatre,40.7606811,-73.9855846,leisure_entertainment,202.2,8034.0,residential,2.0,129.5,416.8,236.4,90.4,0.0,1.0,
times_square,6053407685,Toasties,40.7599574,-73.9831315,food_drink,203.3,2225.0,secondary,2.0,96.5,434.9,449.4,31.7,0.2847477285907597,0.7152522714092403,
times_square,2782000317,Ben & Jerry's,40.7574361,-73.9865499,food_drink,203.5,41586.0,residential,1.0,142.8,406.2,228.3,188.8,0.0,1.0,
times_square,266170756,Millennium Hotel Broadway Times Square,40.757079,-73.9847958,hospitality,204.1,16820.0,residential,1.0,180.0,266.6,115.4,189.2,0.0,0.0042056421284574,
times_square,6008970685,Masseria Caffe & Bakery,40.7606732,-73.985793,food_drink,205.6,8034.0,residential,2.0,116.1,402.7,219.4,108.0,0.0,1.0,
times_square,266170760,Perfect Pint,40.7573956,-73.9836799,food_drink,205.6,1571.0,secondary,1.0,116.8,204.9,165.3,192.7,0.0,1.0,
times_square,2717293824,Carmine's,40.7575108,-73.9867126,food_drink,205.7,41586.0,residential,1.0,143.7,413.9,244.0,191.5,0.0,1.0,
times_square,12488728937,Raising Cane's,40.7573086,-73.9863445,food_drink,205.7,41586.0,residential,1.0,141.4,393.5,205.9,190.3,0.0,1.0,
times_square,266170751,Hudson Theatre,40.7571116,-73.9844399,leisure_entertainment,206.5,3518.0,secondary,1.0,163.9,240.7,117.3,192.7,,,
times_square,9313457709,The Harrison Restaurant & Bar,40.7607466,-73.9847512,food_drink,207.4,35275.0,secondary,1.0,61.1,452.5,304.4,21.7,0.0,0.3293236756802917,
times_square,266170757,Night Theater District,40.7571577,-73.984201,hospitality,208.0,3518.0,secondary,1.0,156.5,225.2,125.4,195.1,,,
times_square,1117866998,,40.7572198,-73.9861908,retail,208.2,41586.0,secondary,4.0,143.2,382.4,189.7,192.5,0.0,1.0,
times_square,5172045822,Guy’s American Kitchen & Bar,40.7575599,-73.9868366,food_drink,208.8,41586.0,residential,1.0,144.7,410.0,255.5,195.1,0.0,1.0,
times_square,10547810049,Ichiran,40.7601354,-73.9832283,food_drink,209.1,4775.0,secondary,2.0,75.5,456.1,443.4,52.8,0.779200706557739,0.2207992934422609,
times_square,266149348,The Gallivant Times Square,40.7605234,-73.9863819,hospitality,210.3,9550.0,residential,2.0,90.9,373.4,176.9,140.5,0.0,0.059776946593568,
times_square,266170553,Harold and Miriam Steinberg Center for Theatre,40.7579298,-73.9829276,leisure_entertainment,212.4,26100.0,secondary,1.0,78.9,215.6,248.4,178.1,0.0,1.0,
times_square,266170540,Connolly's,40.7573583,-73.9835882,food_drink,213.5,3116.0,secondary,1.0,108.3,196.4,165.2,184.0,0.0,1.0,
times_square,266149331,Samuel J. Friedman Theatre,40.7603799,-73.9867366,leisure_entertainment,214.7,8800.0,residential,1.0,93.9,362.4,157.1,163.4,0.0,1.0,
times_square,2678466842,Bubba Gump Shrimp Company,40.7572318,-73.9863898,food_drink,215.0,41586.0,secondary,4.0,132.5,384.6,203.2,199.6,0.0,1.0,
times_square,2678581856,The Mean Fiddler,40.7601307,-73.9871355,food_drink,219.4,8042.0,residential,1.0,120.1,361.4,148.5,189.1,0.0,1.0,
times_square,4257985392,Radio City Apartment,40.7600158,-73.9829482,hospitality,219.6,6925.0,secondary,2.0,94.9,437.8,459.9,32.8,0.0,0.0418906653634015,
times_square,6249882586,Chipotle,40.7593045,-73.9825453,food_drink,219.8,102452.0,residential,1.0,101.8,353.8,398.1,56.1,0.0,1.0,
times_square,266149300,Broadhurst Theatre,40.7582725,-73.987617,leisure_entertainment,223.2,10695.0,residential,1.0,91.8,338.4,281.0,215.0,0.0,1.0,
times_square,5965754697,"R. Gems, Inc.",40.7588404,-73.9824437,retail,223.8,84855.0,residential,1.0,98.8,301.5,356.1,105.9,0.0,1.0,
times_square,266149298,Bernard B. Jacobs Theatre,40.7586143,-73.9877334,leisure_entertainment,224.1,9275.0,secondary,1.0,71.2,331.9,271.8,218.5,0.0,1.0,
times_square,5061206121,Da Marino,40.7609089,-73.985336,food_drink,224.3,4017.0,secondary,1.0,102.2,418.3,253.4,74.2,0.0,1.0,
times_square,4447034701,Virgil's Real BBQ,40.7568784,-73.9853179,food_drink,225.5,2410.0,residential,1.0,139.5,301.0,112.2,209.7,0.4840579710144927,0.5159420289855072,
times_square,2721574118,An'nam,40.7606569,-73.9864408,food_drink,225.6,1686.0,residential,2.0,75.9,360.0,167.2,151.6,0.7501119570085087,0.2498880429914912,
times_square,12917521997,Merrion Row,40.7572479,-73.9835396,food_drink,225.9,2510.0,secondary,1.0,102.0,185.2,156.8,175.6,0.0,0.1533859958585781,
times_square,12646645001,The Woo Woo,40.7601203,-73.9872499,food_drink,226.3,8042.0,residential,1.0,115.1,356.5,143.1,197.7,0.0,1.0,
times_square,11918740847,O'Donoghue's,40.7568638,-73.9852285,food_drink,226.7,2410.0,residential,1.0,141.2,293.3,106.6,210.9,0.7692307692307693,0.2307692307692307,
times_square,12488728938,Taco Bell Cantina,40.7571317,-73.9864521,food_drink,227.2,41586.0,secondary,4.0,120.7,373.0,200.4,211.8,0.0,1.0,
times_square,12917521998,Bobby Van's Grill,40.7570814,-73.9838681,food_drink,227.3,15565.0,secondary,1.0,128.9,196.8,127.0,196.8,0.0,1.0,
times_square,12488728941,Jollibee,40.7568823,-73.9857777,food_drink,231.5,25570.0,residential,1.0,129.8,338.7,138.7,215.4,0.0,1.0,
times_square,10224024752,,40.7569541,-73.9860903,food_drink,231.9,25570.0,secondary,4.0,130.3,357.4,164.2,215.9,0.0,1.0,
times_square,12488728939,Lids,40.7570922,-73.9864769,retail,232.1,41586.0,secondary,4.0,116.1,368.5,199.5,216.6,0.0,1.0,
times_square,2721574113,Pongsri,40.7606849,-73.9865304,food_drink,232.2,1686.0,residential,2.0,69.1,352.2,159.1,159.7,0.7501119570085087,0.2498880429914912,
times_square,13363181665,Millennium Premier Hotel New York Times Square,40.7568934,-73.9843093,hospitality,232.9,6025.0,residential,1.0,138.3,220.8,94.8,219.1,,,
times_square,9313439658,CVS Pharmacy,40.7609689,-73.9845913,health,234.0,13050.0,secondary,1.0,45.9,435.7,315.6,33.2,0.0,1.0,
times_square,5137895928,Reidy Wine & Liquor,40.7600605,-73.9874205,retail,234.2,8042.0,secondary,3.0,100.9,353.7,139.8,209.2,0.0,1.0,
times_square,6757777586,maison patisserie,40.7598078,-73.9876125,food_drink,234.5,14552.0,secondary,1.0,68.9,369.3,157.1,218.9,0.8824552349324597,0.1175447650675402,
times_square,4661316591,Cook Eatery,40.7572001,-73.983437,food_drink,235.3,4523.0,secondary,1.0,92.9,175.1,157.2,165.6,0.0,1.0,
times_square,5985763486,Starbucks,40.758148,-73.9824848,food_drink,235.6,42049.0,residential,1.0,47.7,226.6,289.7,178.8,0.0,1.0,
times_square,11773867097,PS Kitchen,40.7606821,-73.986622,food_drink,236.0,1754.0,residential,2.0,65.4,346.5,151.8,166.4,0.5454545454545454,0.4545454545454545,
times_square,10224024751,,40.7568885,-73.9861112,food_drink,239.3,25570.0,secondary,4.0,124.0,349.9,161.3,223.4,0.0,1.0,
times_square,2610440250,Starbucks,40.7608044,-73.9837222,food_drink,241.5,22015.0,secondary,3.0,11.1,487.7,389.9,67.9,0.0,1.0,
times_square,266149325,John Golden Theatre,40.7587097,-73.9879674,leisure_entertainment,242.4,6400.0,secondary,1.0,51.5,314.2,253.4,237.7,0.0,1.0,
times_square,4687113395,Carve: Unique Sandwich,40.7602363,-73.9873789,food_drink,242.7,8042.0,residential,1.0,112.7,339.7,126.2,212.5,0.0,1.0,
times_square,266149324,Playwright Celtic Pub,40.7593274,-73.9879292,food_drink,243.0,1265.0,secondary,3.0,18.1,336.8,201.2,242.8,0.0,1.0,
times_square,12488728942,Carlo's,40.7567718,-73.9858127,food_drink,244.1,25570.0,residential,3.0,117.2,338.9,133.3,224.4,0.0,1.0,
times_square,2717293878,Gui Steakhouse,40.7605323,-73.9870469,food_drink,244.6,13983.0,secondary,2.0,74.9,332.1,126.0,193.3,0.8980876316817916,0.1019123683182084,
times_square,643414350,Hard Rock Cafe,40.756994,-73.9865512,food_drink,244.7,41586.0,residential,2.0,103.9,357.1,198.8,229.2,0.0,1.0,
times_square,2717323791,La Masseria,40.7608991,-73.986314,food_drink,244.7,24100.0,residential,2.0,65.6,352.3,171.7,153.9,0.865078146202509,0.134921853797491,
times_square,13763391820,Junior's Restaurant and Bakery,40.7609503,-73.9840152,food_drink,245.6,22015.0,secondary,1.0,32.0,460.9,364.1,51.7,0.0,1.0,
times_square,2721574123,Starbucks,40.7604406,-73.987191,food_drink,245.7,13983.0,residential,1.0,86.7,331.6,121.7,202.2,0.8980876316817916,0.1019123683182084,
times_square,3974095816,Jimmy's Corner,40.7567033,-73.9847548,food_drink,246.0,1506.0,residential,1.0,148.2,250.2,73.9,212.6,0.6666666666666666,0.3333333333333333,
times_square,266149332,Sardi's,40.7577618,-73.9876108,food_drink,246.5,5698.0,residential,1.0,127.5,342.1,290.0,235.4,0.0,1.0,
times_square,266170545,Hotel St. James,40.7572094,-73.9831989,hospitality,246.9,6025.0,secondary,1.0,73.0,161.3,170.6,147.3,,,
times_square,266170800,AKA Times Square,40.756792,-73.9841301,hospitality,248.2,10000.0,residential,1.0,119.9,202.7,88.5,214.3,0.0,0.1051970005634779,
times_square,1117866975,,40.756762,-73.9859576,retail,248.5,25570.0,residential,3.0,115.4,338.7,142.7,226.6,0.0,1.0,
times_square,266151909,Eugene O'Neill Theatre,40.7610859,-73.985754,leisure_entertainment,249.2,9547.0,secondary,1.0,96.9,381.7,217.3,114.2,0.0,1.0,
times_square,266149328,Majestic Theatre,40.7584154,-73.9880182,leisure_entertainment,251.6,13625.0,residential,1.0,54.5,305.5,246.8,244.9,0.0,1.0,
times_square,3995212060,Sushiden,40.7600927,-73.9825066,food_drink,255.5,6925.0,secondary,2.0,108.0,440.1,445.8,31.4,0.0,0.0418906653634015,
times_square,4825110721,Yankees,40.7607362,-73.9832448,retail,257.1,62459.0,secondary,3.0,13.6,516.8,415.5,82.5,0.0,1.0,
times_square,1426250385,Starbucks,40.7566623,-73.9858678,food_drink,257.1,25570.0,residential,3.0,104.7,329.6,130.4,213.9,0.0,1.0,
times_square,1753205377,The Lambs Club,40.756616,-73.9845926,food_drink,257.5,7656.0,residential,1.0,136.4,234.7,62.1,205.8,0.0,0.049057954681057,
times_square,4554035532,Carolines on Broadway,40.7610777,-73.9840413,leisure_entertainment,258.0,2800.0,tertiary,1.0,26.5,447.7,361.5,59.6,0.0,1.0,
times_square,266149304,Helen Hayes Theatre,40.7578513,-73.9878417,leisure_entertainment,258.7,7225.0,residential,1.0,105.7,321.5,268.8,248.5,0.0,1.0,
times_square,10791083576,Brooklyn Deli,40.7570456,-73.9869703,food_drink,259.5,41586.0,residential,2.0,87.7,362.3,232.3,244.8,0.0,1.0,
times_square,6871135774,Atlantica Wealth LLC,40.758044,-73.9822212,finance,260.5,42049.0,residential,1.0,22.7,211.1,294.7,159.7,0.0,1.0,
times_square,266151908,Ambassador Theatre,40.761247,-73.9849896,leisure_entertainment,261.1,10050.0,secondary,1.0,64.7,393.5,282.0,75.2,0.0,1.0,
times_square,12917521996,Gumption Coffee,40.7568873,-73.98349,food_drink,261.7,33639.0,secondary,1.0,100.6,158.3,127.7,161.5,0.0,1.0,
times_square,8669771128,Haru Sushi,40.7572312,-73.9873203,food_drink,263.4,50637.0,residential,2.0,99.7,378.5,253.4,248.4,0.0,1.0,
times_square,266151925,Mayfair,40.7611761,-73.9859678,hospitality,263.4,4017.0,secondary,1.0,76.3,361.1,199.4,134.7,,,
times_square,5922862086,Junior's Deli,40.7611297,-73.9839743,food_drink,265.4,2800.0,secondary,2.0,26.2,445.8,367.1,67.7,0.0,1.0,
times_square,5032403221,John's Pizza,40.7590021,-73.9882743,food_drink,267.6,19982.0,secondary,1.0,38.8,297.1,234.6,253.3,0.0,0.0551835551650805,
times_square,266170536,Casablanca Hotel,40.7564973,-73.9853964,hospitality,268.3,6030.0,residential,3.0,98.5,299.3,87.1,188.1,0.0,0.1666666666666666,
times_square,6501259685,bella vita tranttoria,40.7568075,-73.9867028,food_drink,269.0,29630.0,residential,2.0,80.5,335.8,200.3,253.6,0.0,1.0,
times_square,12917521995,Dill & Parsley,40.7568457,-73.9833773,food_drink,270.6,33639.0,secondary,1.0,93.0,147.8,131.3,151.6,0.0,1.0,
times_square,1751769863,NY Gift Shop,40.7583731,-73.9882377,retail,270.7,13625.0,residential,1.0,43.2,286.8,228.3,263.9,0.0,1.0,
times_square,4316345593,Brooklyn Diner,40.7565134,-73.9857687,food_drink,271.3,25570.0,residential,3.0,89.4,315.9,115.2,195.7,0.0,1.0,
times_square,2717542733,Herskovits PLLC,40.7578147,-73.982208,office_professional,271.8,42049.0,secondary,4.0,22.8,185.7,276.9,135.5,0.0,1.0,
times_square,4503912490,Carnegie Diner & Cafe,40.7579319,-73.9821357,food_drink,271.9,42049.0,residential,1.0,12.2,197.8,290.5,145.5,0.0,1.0,
times_square,6262714386,hotel mela,40.7565163,-73.984341,hospitality,272.7,7500.0,residential,1.0,112.5,211.7,53.5,201.2,0.0,0.060539406108426,
times_square,266170835,Belasco Theatre,40.7566549,-73.9837919,leisure_entertainment,272.9,12552.0,residential,1.0,90.8,170.8,91.4,185.5,0.0,1.0,
times_square,266170764,The Chatwal,40.7564754,-73.984598,hospitality,272.9,7656.0,residential,1.0,129.1,232.3,46.5,190.5,0.0,0.049057954681057,
times_square,2709906348,Gotham Gifts,40.7603842,-73.9877206,retail,275.6,2500.0,residential,1.0,110.5,309.8,95.9,181.0,0.0,0.1633986928104575,
times_square,6418252594,Godiva Chocolatier,40.7608722,-73.9831033,food_drink,276.4,62459.0,secondary,2.0,24.3,512.0,402.0,82.0,0.0,1.0,
times_square,266149336,St. James Theatre,40.7579901,-73.9881542,leisure_entertainment,276.4,12858.0,residential,1.0,75.6,293.9,239.8,264.1,0.0,1.0,
times_square,9045283634,,40.7610464,-73.9867555,retail,276.4,16065.0,residential,2.0,25.8,312.5,133.1,193.5,0.0,0.1762790834091014,
times_square,6441649386,Sugar Factory,40.758854,-73.9883847,food_drink,276.7,19982.0,secondary,2.0,26.4,283.5,221.7,244.4,0.0,0.0551835551650805,
times_square,3246839604,Majestic Deli,40.7611447,-73.9836762,food_drink,276.9,3735.0,secondary,2.0,15.7,458.7,367.7,87.5,0.0,1.0,
times_square,11051498568,Bistro 46,40.7597563,-73.9881924,food_drink,277.3,8164.0,secondary,1.0,46.8,338.3,151.1,211.8,0.8407472628435801,0.1592527371564198,
times_square,9749233913,All'Antico Vinaio,40.7596992,-73.9882202,food_drink,277.4,8164.0,secondary,3.0,40.8,333.0,157.3,216.4,0.8407472628435801,0.1592527371564198,
times_square,9049400008,Gifts and Luggage,40.7612435,-73.9839251,retail,278.7,2800.0,secondary,2.0,25.2,437.6,356.8,80.1,0.0,1.0,
times_square,1487449793,Tony's,40.7563915,-73.9854253,food_drink,280.3,6030.0,residential,3.0,87.2,300.5,83.2,176.7,0.0,0.1666666666666666,
times_square,1426275725,Europa Cafe,40.7566921,-73.9867194,food_drink,280.9,29630.0,residential,2.0,71.6,322.9,196.6,246.6,0.0,1.0,
times_square,2717293822,China River,40.7582012,-73.9883065,food_drink,281.0,10030.0,residential,1.0,56.4,280.2,223.6,265.1,0.0,1.0,
times_square,5987980586,Los Tacos No.1,40.7574218,-73.9878145,food_drink,281.6,50637.0,residential,2.0,124.8,332.7,255.6,230.6,0.0,1.0,
times_square,7039664885,A Slice of New York,40.7596528,-73.988293,food_drink,281.7,1881.0,secondary,3.0,37.3,325.1,162.2,218.5,0.0,1.0,
times_square,6251053231,MASH Army & Navy,40.759505,-73.9883714,retail,283.6,1881.0,secondary,3.0,26.8,311.4,178.6,231.2,0.0,1.0,
times_square,266151934,Hilton Garden Inn,40.7612294,-73.9865051,hospitality,284.8,16065.0,secondary,3.0,35.5,318.8,154.5,178.9,0.0,0.1762790834091014,
times_square,2716126858,Amorino,40.759429,-73.9884241,food_drink,286.1,10041.0,secondary,3.0,25.7,303.5,187.2,237.6,0.9211219612235562,0.0788780387764438,
times_square,12917521994,Charles Tyrwhitt,40.7569899,-73.9828128,retail,286.7,32134.0,secondary,1.0,42.8,121.4,178.5,108.3,0.0,1.0,
times_square,11197724009,Duane Reade,40.7585692,-73.9884879,retail,287.7,19982.0,residential,1.0,13.0,268.3,208.1,239.7,0.0,0.0551835551650805,
times_square,2717293880,John's Pizzeria,40.7582345,-73.9884017,food_drink,287.8,10030.0,residential,1.0,50.1,272.2,215.3,256.3,0.0,1.0,
times_square,4213578591,Carve Café & Pizza,40.7593488,-73.9885067,food_drink,291.2,10041.0,secondary,1.0,30.6,293.3,196.5,237.3,0.9211219612235562,0.0788780387764438,
times_square,13057299001,,40.7615058,-73.9855952,hospitality,292.7,1485.0,secondary,1.0,70.1,348.4,234.8,129.8,0.0,1.0,
times_square,1426276157,AT&T,40.756593,-73.9867931,retail,293.5,29630.0,secondary,4.0,60.7,311.8,198.9,240.9,0.0,1.0,
times_square,2134025590,Del Frisco's Double Eagle Steakhouse,40.7593243,-73.9816604,food_drink,293.5,102452.0,secondary,2.0,30.5,351.8,436.6,114.9,0.0,1.0,
times_square,2709915245,,40.7609997,-73.9872725,retail,296.6,2025.0,residential,1.0,33.5,282.1,90.2,181.6,0.0,1.0,
times_square,288431450,Hotel Riu Plaza New York Times Square,40.7602043,-73.98819,hospitality,297.9,14752.0,secondary,1.0,96.5,307.9,101.6,169.2,0.0,0.0122626193053232,
times_square,266151938,citizenM,40.7615806,-73.9849656,hospitality,298.3,6025.0,secondary,2.0,71.4,360.7,288.4,107.6,,,
times_square,12038054007,Nasdaq MarketSite,40.7562782,-73.9858581,leisure_entertainment,298.4,45800.0,residential,3.0,62.3,288.7,113.7,173.0,0.0,1.0,
times_square,13361377026,Kimpton Theta New York - Times Square by IHG,40.7613638,-73.9865081,hospitality,298.5,16065.0,secondary,3.0,26.2,311.1,156.3,184.8,0.0,0.1762790834091014,
times_square,5474022221,Hotel Riu Plaza New York Times Square,40.7602133,-73.9881913,hospitality,298.5,14752.0,secondary,1.0,97.5,306.9,100.5,168.3,0.0,0.0122626193053232,
times_square,4333671794,"Sightseeing Pass, LLC",40.7608186,-73.9875915,retail,299.2,5000.0,residential,1.0,67.0,277.8,70.4,163.5,0.0,1.0,
times_square,13477811985,The Mermaid Bar,40.7561847,-73.9849769,food_drink,302.1,14476.0,residential,3.0,95.4,261.7,39.4,153.0,0.0,0.0464940574782785,
times_square,6898129085,Lillie‘s,40.7615503,-73.9859763,food_drink,303.8,2510.0,secondary,1.0,62.1,335.1,204.4,157.1,0.0,1.0,
times_square,2678783476,Applebee's,40.7614452,-73.9837559,food_drink,304.8,23291.0,secondary,2.0,39.3,427.9,334.2,106.5,0.0,1.0,
times_square,265320826,Econo Lodge,40.7604706,-73.9881004,hospitality,307.2,2000.0,residential,1.0,124.7,284.9,73.9,151.1,0.0,1.0,
times_square,2710031797,Grace 48 Deli & Grocery,40.7612086,-73.9871163,retail,307.8,1701.0,residential,1.0,11.5,277.4,103.1,189.6,0.0,1.0,
times_square,4757137103,Roxy Diner,40.7583293,-73.9886792,food_drink,308.1,5000.0,residential,1.0,30.2,249.3,191.3,230.8,0.0,1.0,
times_square,266034050,Lyric Theatre,40.7567837,-73.9874651,leisure_entertainment,308.3,24176.0,residential,2.0,49.6,337.2,204.6,212.2,0.0,1.0,
times_square,4875073021,McDonald's,40.7576352,-73.9818383,food_drink,308.6,1580.0,secondary,4.0,30.7,163.6,287.2,107.2,0.0,1.0,
times_square,6288549411,New York Gifts,40.7576795,-73.9818086,retail,308.7,1580.0,secondary,4.0,26.6,168.6,292.2,111.6,0.0,1.0,
times_square,7093921949,T-Mobile,40.7575085,-73.9819244,retail,309.0,1887.0,secondary,4.0,44.2,149.5,273.0,95.3,0.0,1.0,
times_square,12857850351,Bar Mexicana,40.7561252,-73.9848062,food_drink,309.5,2092.0,residential,3.0,104.3,247.3,23.6,148.6,0.7531879884821061,0.2468120115178938,
times_square,6165189267,Chick-fil-A,40.7574015,-73.9819995,food_drink,309.8,1887.0,secondary,1.0,41.7,138.0,260.9,86.3,0.0,1.0,
times_square,5181120222,Dutch Freds,40.760714,-73.9879098,food_drink,311.0,2499.0,residential,1.0,95.4,270.5,56.8,145.9,0.6896551724137931,0.3103448275862069,
times_square,4909127627,Sombrero,40.761217,-73.987191,food_drink,312.1,2500.0,residential,1.0,17.8,271.8,96.9,183.3,0.0,0.2094240837696335,
times_square,10812448859,47th Street Diamond Exchange,40.7578484,-73.9816639,retail,312.1,1540.0,residential,1.0,21.8,188.1,313.5,129.0,,,
times_square,9784352417,Le Caffe Coffee,40.759942,-73.9816372,food_drink,313.8,98206.0,secondary,2.0,54.1,420.5,425.2,79.4,0.0,1.0,
times_square,2625469223,Q NYC,40.7612883,-73.9871051,food_drink,314.7,1701.0,residential,1.0,14.1,272.9,105.3,189.5,0.0,1.0,
times_square,3974095815,BXL Cafe,40.7560857,-73.9846852,food_drink,314.9,2092.0,residential,3.0,100.5,237.3,12.6,146.7,0.7531879884821061,0.2468120115178938,
times_square,4947157021,Dough Donuts,40.7588461,-73.9888398,food_drink,315.0,10040.0,secondary,2.0,20.7,246.4,184.3,206.2,0.0,1.0,
times_square,10790851623,Malidani Jewelry Exchange,40.7580624,-73.9815242,retail,315.2,2900.0,residential,1.0,37.0,213.1,337.8,152.7,0.0,1.0,
times_square,2680148433,Bobby Van's Steakhouse,40.7608683,-73.9823969,food_drink,315.8,48200.0,secondary,2.0,82.9,524.9,370.9,56.2,0.0,1.0,
times_square,2717323748,Nanking,40.7615479,-73.9837434,food_drink,315.8,23291.0,secondary,2.0,48.0,419.6,322.8,116.5,0.0,1.0,
times_square,2611782758,Pret A Manger,40.758119,-73.981487,food_drink,316.5,2900.0,secondary,4.0,35.1,219.7,344.4,159.1,0.0,1.0,
times_square,10790851620,Universal Jewelers,40.7578226,-73.9816007,retail,318.2,1330.0,residential,1.0,27.8,185.8,315.8,125.9,0.0,1.0,
times_square,4708892894,Natsumi,40.7617708,-73.9850779,food_drink,319.2,7532.0,secondary,2.0,75.8,337.6,278.0,130.7,0.0,0.0634920634920634,
times_square,266033991,Todd Haimes Theatre,40.7571556,-73.9881192,leisure_entertainment,319.8,9708.0,residential,2.0,107.8,317.5,219.8,191.5,0.0,1.0,
times_square,6654169785,Smith's Bar,40.7587626,-73.9888983,food_drink,320.3,10040.0,secondary,2.0,19.5,239.1,177.2,202.2,0.0,1.0,
times_square,9045283632,Gifts & Luggage,40.7613984,-73.9870003,retail,320.6,2349.0,secondary,3.0,19.2,273.4,116.7,197.6,0.0,1.0,
times_square,2611782751,Capital One,40.7568069,-73.9824512,finance,322.4,7850.0,secondary,1.0,37.0,86.6,194.6,73.7,0.0,1.0,
times_square,6615272825,Citibank,40.7571111,-73.9820848,finance,322.6,59873.0,secondary,1.0,21.4,106.8,237.6,62.7,0.0,1.0,
times_square,2717543654,The Town Hall,40.7560233,-73.9845629,leisure_entertainment,323.1,12563.0,residential,3.0,94.4,227.3,4.4,143.3,0.0,1.0,
times_square,2610440251,TD Bank,40.7617606,-73.9844226,finance,323.2,8998.0,secondary,2.0,56.8,366.5,297.6,120.8,0.0,1.0,
times_square,5420034621,Record Mart Inc,40.7562003,-73.9865322,retail,323.5,3475.0,secondary,4.0,57.5,269.3,168.6,192.6,0.0,1.0,
times_square,6475002986,Tad’s Steakhouse,40.7612776,-73.9828873,food_drink,323.5,30125.0,secondary,3.0,48.6,489.7,360.8,109.7,0.5601294645038897,0.09910210102141,
times_square,10790851621,Javier the Jeweler,40.7577968,-73.9815384,retail,324.1,1330.0,residential,1.0,33.7,183.7,318.2,123.1,0.0,1.0,
times_square,12207819344,Kopifellas,40.7609179,-73.9823212,food_drink,324.2,48200.0,secondary,2.0,89.9,528.4,362.6,62.0,0.0,1.0,
times_square,9045283631,,40.7614604,-73.9869493,retail,324.5,16350.0,secondary,3.0,13.4,273.5,122.9,201.8,0.8947656430871551,0.1052343569128449,
times_square,5401946274,Cleaners At Broadway,40.7618189,-73.9853212,personal_care,325.1,7532.0,secondary,2.0,55.6,324.0,265.6,144.2,0.0,0.0634920634920634,
times_square,10198020635,Mama's Pizza,40.7588156,-73.9889612,food_drink,325.3,10040.0,residential,1.0,26.7,235.7,173.5,196.3,0.0,1.0,
times_square,10087482395,8th Ave Gifts,40.7581721,-73.9888582,retail,326.7,2508.0,secondary,3.0,13.0,233.8,177.9,223.0,0.5999528524280999,0.4000471475719001,
times_square,10812448861,Zoland Diamond & Jewelry Exchange,40.7579693,-73.9814189,retail,326.9,1470.0,residential,1.0,42.1,204.3,338.0,143.0,0.0,1.0,
times_square,266034047,New Victory Theater,40.7565592,-73.9874523,leisure_entertainment,327.1,6928.0,primary,4.0,24.6,312.4,184.9,203.3,0.0,1.0,
times_square,5825512054,H&M,40.7560508,-73.9860803,retail,327.4,45800.0,primary,5.0,37.6,259.3,129.8,157.8,0.0,1.0,
times_square,12207824657,Jakarta Munch,40.7609535,-73.9823011,food_drink,328.2,48200.0,secondary,2.0,92.2,524.2,358.5,66.2,0.0,1.0,
times_square,2710031798,Mixue,40.7615202,-73.9868934,food_drink,328.2,16350.0,secondary,3.0,10.7,274.3,129.5,206.7,0.8947656430871551,0.1052343569128449,
times_square,1000798085,Key Food,40.7617166,-73.9862921,retail,328.9,2510.0,secondary,1.0,50.4,311.2,184.6,189.4,0.0,1.0,
times_square,1426276530,Chase,40.7563513,-73.9870948,finance,329.5,29630.0,primary,4.0,24.8,285.7,189.1,226.0,0.0,1.0,
times_square,4281354990,Men's Wearhouse,40.7606178,-73.9819075,retail,329.8,48200.0,secondary,2.0,125.6,495.2,369.4,50.1,0.0,1.0,
times_square,13202418108,Elevation HQ New York Cannabis Dispensary Weed Delivery,40.7587815,-73.9890125,retail,329.8,10040.0,residential,1.0,29.3,230.4,168.4,192.4,0.0,1.0,
times_square,10812448863,Leon Diamond,40.7577677,-73.9814787,retail,330.0,1330.0,residential,1.0,39.6,181.3,320.3,120.2,0.0,1.0,
times_square,2710031799,Times Square Diner & Grill,40.7615479,-73.9868708,food_drink,330.1,16350.0,secondary,3.0,11.5,274.5,132.4,208.7,0.8947656430871551,0.1052343569128449,
times_square,2717542665,Citizens Bank,40.7561784,-73.9835159,finance,330.7,42050.0,residential,1.0,34.5,138.6,87.3,171.9,0.0,1.0,
times_square,2611782763,Wells Fargo,40.7565894,-73.982602,finance,332.1,7850.0,secondary,1.0,63.9,77.7,173.5,86.0,0.0,1.0,
times_square,9045283633,N.Y.C. Smoke Shop,40.7615731,-73.9868618,food_drink,332.2,16350.0,secondary,3.0,13.5,273.9,134.2,209.6,0.8947656430871551,0.1052343569128449,
times_square,10568411909,Urban Hawker,40.7609866,-73.9822741,food_drink,332.4,48200.0,secondary,2.0,95.1,520.0,354.2,70.1,0.0,1.0,
times_square,9777640617,Famous Famiglia Pizza,40.7580372,-73.9888823,food_drink,332.7,2508.0,secondary,3.0,21.9,232.3,178.7,227.7,0.5999528524280999,0.4000471475719001,
times_square,163502865,Winter Garden Theatre,40.7616146,-73.9834231,leisure_entertainment,333.3,23291.0,residential,2.0,48.5,431.5,316.8,138.8,0.0,1.0,
times_square,1899033652,McDonald's,40.7581196,-73.9889244,food_drink,333.6,2508.0,secondary,3.0,12.2,228.3,173.4,220.4,0.5999528524280999,0.4000471475719001,
times_square,2178743031,Skechers,40.7564172,-73.9873255,retail,333.7,6928.0,primary,4.0,12.4,295.1,180.0,208.8,0.0,1.0,
times_square,1752843998,Stephen Sondheim Theatre,40.7558962,-73.9849328,leisure_entertainment,334.3,87863.0,residential,3.0,81.6,259.7,37.7,121.6,0.0,1.0,
times_square,4188132390,Kung Fu Little Steamed Buns,40.7616147,-73.9868436,food_drink,335.7,16350.0,secondary,1.0,17.3,273.1,137.4,211.5,0.8947656430871551,0.1052343569128449,
times_square,12956856877,,40.7591775,-73.981126,food_drink,336.1,102452.0,secondary,4.0,33.5,340.9,450.5,162.7,0.0,1.0,
times_square,7139389687,Burger & Lobster,40.7558772,-73.9850095,food_drink,336.2,87863.0,residential,3.0,78.3,266.3,44.4,118.7,0.0,1.0,
times_square,11076895105,Gregory’s coffee,40.7615722,-73.983214,food_drink,336.9,7800.0,secondary,3.0,48.0,447.0,323.7,147.8,0.0,1.0,
times_square,12101284215,Kyuramen,40.760232,-73.9886968,food_drink,337.2,2010.0,secondary,1.0,109.9,289.3,102.4,145.9,0.4716021474992936,0.5283978525007064,
times_square,12917458455,Ground Central,40.7567436,-73.982279,food_drink,337.6,7850.0,secondary,1.0,43.1,73.0,205.1,58.4,0.0,1.0,
times_square,1899033650,West End Bar & Grill,40.7616486,-73.9868145,food_drink,338.0,16350.0,secondary,1.0,20.5,273.7,141.2,214.3,0.8947656430871551,0.1052343569128449,
times_square,266034074,American Airlines Theatre,40.756828,-73.9880422,leisure_entertainment,338.4,7538.0,primary,4.0,75.0,338.2,187.0,172.9,0.0,1.0,
times_square,2610440256,Walgreens,40.756098,-73.9866768,health,338.7,3475.0,primary,,45.3,257.0,180.1,191.5,0.0,1.0,
times_square,266170798,The Michelangelo New York,40.7612693,-73.9825628,hospitality,339.2,30125.0,residential,1.0,75.3,497.1,347.8,101.7,0.5601294645038897,0.09910210102141,
times_square,6288549410,,40.7563772,-73.9827989,finance,341.0,7375.0,secondary,4.0,58.5,81.7,150.8,107.6,,,
times_square,2717293865,Frankie and Johnie's Steakhouse,40.7600472,-73.9888591,food_drink,341.3,4418.0,secondary,1.0,99.3,305.3,126.3,161.2,0.0,1.0,
times_square,6288552600,6th Avenue Shopping Court,40.7563923,-73.982749,retail,342.0,7375.0,secondary,4.0,59.3,78.2,155.3,103.1,,,
times_square,10812448860,Valley Bank,40.7578994,-73.9812513,finance,342.7,1508.0,residential,1.0,55.6,199.9,344.4,137.5,0.7135591496287255,0.2864408503712745,
times_square,1899033653,Starbucks,40.7580159,-73.9889989,food_drink,342.8,2508.0,secondary,3.0,21.8,222.7,169.7,220.1,0.5999528524280999,0.4000471475719001,
times_square,5425647820,MongoDB,40.7619612,-73.9843717,office_professional,345.9,90400.0,secondary,2.0,77.6,350.8,279.5,143.3,0.0,1.0,
times_square,1899033656,Shake Shack,40.7584542,-73.9891712,food_drink,346.5,2017.0,residential,1.0,30.4,209.5,149.8,187.1,0.4670179901871706,0.5329820098128294,
times_square,2717543542,Imperial Jewelry,40.7578811,-73.9812066,retail,346.9,6359.0,residential,1.0,59.5,198.9,346.2,136.3,0.0,1.0,
times_square,265320169,Al Hirschfeld Theatre,40.759253,-73.9892006,leisure_entertainment,347.6,13389.0,secondary,1.0,75.1,236.7,174.9,177.9,0.0,1.0,
times_square,8670146200,The Times Eatery,40.7579172,-73.9890503,food_drink,350.2,2508.0,residential,2.0,33.1,219.6,168.8,222.0,0.5999528524280999,0.4000471475719001,
times_square,2717543485,Just Salad,40.7572239,-73.9815588,food_drink,351.7,19700.0,secondary,1.0,66.5,120.7,282.5,59.4,0.0,1.0,
times_square,12517105503,Stephen Sondheim Theatre,40.7557546,-73.9845842,leisure_entertainment,352.4,87863.0,residential,3.0,64.5,230.8,34.1,115.1,0.0,1.0,
times_square,6280452083,ING Financial Holdings Corporation,40.7558996,-73.9837205,finance,353.3,42050.0,secondary,4.0,42.3,158.6,71.3,156.7,0.0,1.0,
times_square,2678783479,Ellen's Stardust Diner,40.7618484,-73.9835031,food_drink,354.4,7800.0,residential,2.0,73.5,407.9,290.3,155.5,0.0,1.0,
times_square,7653858222,The Duke on 42nd Street,40.7567679,-73.9882358,leisure_entertainment,354.9,7538.0,primary,4.0,83.0,326.8,175.6,155.7,0.0,1.0,
times_square,6483003192,Orso,40.7601137,-73.9890051,food_drink,355.5,1673.0,secondary,1.0,112.8,295.3,124.5,151.2,0.6666666666666666,0.3333333333333333,
times_square,2717542715,La Bleu Optique,40.7564925,-73.9823191,health,355.7,7850.0,secondary,1.0,70.7,52.5,193.2,65.2,0.0,1.0,
times_square,2611782754,City National Bank,40.7561674,-73.9829,finance,355.9,9375.0,residential,1.0,35.8,86.7,138.6,124.7,0.0,1.0,
times_square,6308858886,NY Gifts,40.7617019,-73.9830488,retail,356.3,7800.0,residential,2.0,67.2,446.5,311.9,158.6,0.0,1.0,
times_square,5697442714,ScentElate,40.7614503,-73.987666,retail,356.5,1808.0,residential,1.0,63.9,224.3,67.7,141.5,0.75,0.25,
times_square,12286080701,Assured Guaranty,40.7620971,-73.984681,office_professional,357.2,90400.0,secondary,2.0,97.1,323.4,254.6,158.6,0.0,1.0,
times_square,11044225344,Carnegie Diner & Cafe,40.7620418,-73.9860181,food_drink,357.8,35167.0,secondary,2.0,14.6,281.2,220.8,197.9,0.8468739783324309,0.153126021667569,
times_square,7093921951,Aldo,40.7589538,-73.9808511,retail,357.9,11975.0,secondary,4.0,42.5,321.8,447.4,194.0,0.0,1.0,
times_square,2716231269,Target,40.7567805,-73.9883068,retail,358.5,7538.0,primary,4.0,88.7,320.9,175.4,151.8,0.0,1.0,
times_square,6398536726,Satin Dolls NYC,40.7582838,-73.9893037,leisure_entertainment,360.6,2017.0,secondary,3.0,26.6,196.5,139.2,183.7,0.4670179901871706,0.5329820098128294,
times_square,10585987700,McMenamin Law Group,40.7561716,-73.9827853,office_professional,360.6,9375.0,residential,1.0,36.2,77.1,148.3,116.0,0.0,1.0,
times_square,3573482103,Joe Allen,40.7601328,-73.9890604,food_drink,360.6,1673.0,secondary,1.0,117.4,292.3,124.8,148.3,0.6666666666666666,0.3333333333333333,
times_square,4794092321,Ruth's Chris Steak House,40.7613487,-73.9822791,food_drink,361.4,30125.0,residential,1.0,100.3,481.4,324.6,110.0,0.5601294645038897,0.09910210102141,
times_square,12412579864,"Greco Neyland, PC",40.756143,-73.9828175,office_professional,361.9,9375.0,residential,1.0,34.3,79.8,145.4,120.0,0.0,1.0,
times_square,11175531742,The Elgin,40.7583068,-73.9808668,food_drink,362.6,8384.0,residential,1.0,47.2,252.8,397.7,189.8,0.0,1.0,
times_square,2716231111,B.B. King Blues Club & Grill,40.756837,-73.98844,leisure_entertainment,363.0,7538.0,primary,4.0,101.6,308.1,179.3,147.4,0.0,1.0,
times_square,11242273442,Orangetheory Fitness,40.7571733,-73.9814382,leisure_entertainment,363.3,19700.0,secondary,1.0,76.0,118.0,289.1,55.2,0.0,1.0,
times_square,10766495918,Princi,40.7620822,-73.9841126,food_drink,363.5,90400.0,residential,1.0,82.0,354.1,264.9,159.9,0.0,1.0,
times_square,7093921952,Loft,40.7590615,-73.9807677,retail,365.3,1650.0,secondary,1.0,29.4,335.3,460.9,195.6,0.0,1.0,
times_square,11425773528,Society’s SmokeShop,40.7585189,-73.989409,retail,365.4,27615.0,residential,1.0,48.3,190.9,130.3,165.9,0.0311111111111111,0.0063777777777777,
times_square,1162102843,World's Largest Jewelry Exchange,40.7578683,-73.9809626,retail,366.9,8803.0,residential,1.0,72.6,204.3,362.3,141.3,0.1399319193506153,0.8600680806493847,
times_square,8808753154,Sell Diamonds NYC,40.7578115,-73.9809828,retail,367.3,8803.0,residential,1.0,77.3,197.8,357.4,134.8,0.1399319193506153,0.8600680806493847,
times_square,266170809,The Red Flame,40.7561488,-73.9826856,food_drink,367.3,9375.0,residential,1.0,31.7,68.7,156.5,110.2,0.0,1.0,
times_square,13012209901,Civilian Hotel,40.761514,-73.9877712,hospitality,367.6,1808.0,residential,1.0,74.9,213.0,65.2,132.8,0.0,1.0,
times_square,4708888896,Fresh From Hell,40.7607941,-73.9886943,food_drink,368.8,3013.0,residential,1.0,151.4,230.7,46.6,91.2,1.0,0.0,
times_square,2717543469,Larry's Fine Jewelry,40.7575858,-73.9810662,retail,369.8,11652.0,residential,1.0,79.6,172.0,338.3,108.9,0.0,1.0,
times_square,13274705011,Steinway Hall,40.7557328,-73.9837511,retail,370.0,42050.0,residential,3.0,51.0,162.1,75.7,138.1,0.0,1.0,
times_square,2716231114,Cold Stone Creamery,40.7569181,-73.9886311,food_drink,370.2,40200.0,primary,4.0,112.1,289.6,186.2,142.9,0.0,1.0,
times_square,265322620,Local 802 American Federation of Musicians,40.7612799,-73.9881814,office_professional,370.7,5021.0,residential,1.0,101.5,206.5,22.7,99.8,0.0,1.0,
times_square,4058593771,Maoz,40.7580938,-73.9893834,food_drink,371.7,6000.0,unclassified,,34.7,189.8,136.2,187.8,0.0,1.0,
times_square,5342840058,Private Eyes,40.7594575,-73.9894525,retail,371.8,5021.0,secondary,1.0,106.0,231.7,172.1,162.9,0.4963235294117647,0.5036764705882353,
times_square,13281517266,Sicily,40.7601744,-73.9891823,food_drink,371.9,4017.0,secondary,1.0,127.7,285.8,126.3,142.4,0.7266265718972116,0.2733734281027884,
times_square,7235100085,Circle in the Square Theatre,40.7622484,-73.9853553,leisure_entertainment,372.9,1507.0,secondary,2.0,40.6,279.6,221.0,188.7,0.0,1.0,
times_square,8729437331,Charlie Palmer Steak,40.7555484,-73.9853184,food_drink,373.1,7173.0,primary,5.0,52.3,233.5,86.8,82.6,0.0,0.1045675438481589,
times_square,2717543445,Daniel Diamonds,40.7575708,-73.9810306,retail,373.3,2111.0,residential,1.0,83.0,171.6,340.0,108.7,0.0,1.0,
times_square,266034056,The Westin,40.7574344,-73.9890888,hospitality,373.4,17574.0,residential,2.0,86.8,230.1,190.1,175.2,0.0,0.0023043478260869,
times_square,2716231115,Dallas BBQ,40.7569552,-73.9887186,food_drink,373.7,40200.0,primary,4.0,114.2,281.2,189.9,141.6,0.0,1.0,
times_square,7093921929,TsuroTonTan,40.7582536,-73.9807387,food_drink,374.3,8384.0,residential,1.0,59.3,251.1,402.6,188.1,0.0,1.0,
times_square,293183674,Cassa Hotel,40.7563387,-73.9821893,hospitality,375.8,6024.0,secondary,1.0,64.9,33.1,200.4,63.8,0.4156931337455255,0.4649609502115197,
times_square,663084281,Chase,40.7559085,-73.9830221,finance,375.9,48199.0,residential,1.0,18.0,101.1,128.9,148.7,0.0,1.0,
times_square,6615272826,The Hotel @ Times Square,40.7571139,-73.9812965,hospitality,376.9,11850.0,secondary,1.0,87.8,116.1,297.3,53.2,0.0,0.1634319315044001,
times_square,10236585208,Magnolia Bakery,40.7592784,-73.9806536,food_drink,376.9,1650.0,secondary,1.0,7.9,361.1,470.9,190.1,0.0,1.0,
times_square,266034045,InterContinental New York Times Square,40.7585909,-73.9895787,hospitality,378.8,27615.0,residential,1.0,64.2,178.8,117.2,149.8,0.0311111111111111,0.0063777777777777,
times_square,1214204189,Exchange 58,40.757317,-73.9810918,retail,380.7,11850.0,residential,1.0,95.2,144.0,322.3,81.4,0.0,0.1634319315044001,
times_square,137874843,Gershwin Theatre,40.7623285,-73.9852288,leisure_entertainment,381.4,1507.0,secondary,2.0,53.2,276.9,214.8,193.4,0.0,1.0,
times_square,11175531741,Psychic Readings,40.7581723,-73.9806742,leisure_entertainment,381.5,2092.0,residential,1.0,67.8,245.0,401.5,182.0,0.5999386879215205,0.4000613120784794,
times_square,8729437327,Verizon,40.7554687,-73.9851576,retail,381.6,87863.0,primary,5.0,49.4,234.0,83.8,72.6,0.0,1.0,
times_square,4811335821,My Travel To New York,40.7607891,-73.9888957,office_professional,382.5,2771.0,residential,1.0,167.8,225.2,59.4,82.6,0.8403547671840355,0.1596452328159645,
times_square,13763391819,MR Pizza,40.7620892,-73.9833881,food_drink,382.8,33266.0,residential,2.0,45.4,396.2,264.7,183.4,0.0,0.203643485249929,
times_square,2611782760,Starbucks,40.75555,-73.9840554,food_drink,382.8,87863.0,residential,3.0,49.5,183.1,69.8,119.4,0.0,1.0,
times_square,7093921928,Pronto Pizza,40.7582165,-73.9806429,food_drink,383.0,2092.0,residential,1.0,68.3,250.5,406.5,187.5,0.5999386879215205,0.4000613120784794,
times_square,2716231259,Regal E-Walk Stadium 13 & RPX,40.7570477,-73.9889365,leisure_entertainment,383.2,40200.0,primary,4.0,102.5,260.1,200.4,140.4,0.0,1.0,
times_square,2678783481,Starbucks,40.7620837,-73.9833543,food_drink,383.3,33266.0,residential,2.0,45.6,398.7,265.7,184.3,0.0,0.203643485249929,
times_square,368051660,Second Stage Theater,40.7581985,-73.9895564,leisure_entertainment,383.4,6000.0,unclassified,,46.7,174.9,119.4,169.3,0.0,1.0,
times_square,5011118921,,40.7620414,-73.9832079,retail,383.9,33266.0,residential,2.0,50.8,411.1,272.3,187.3,0.0,0.203643485249929,
times_square,12662586701,Dim Sum Palace,40.7602273,-73.9893114,food_drink,384.2,2010.0,secondary,1.0,139.5,278.4,128.2,135.9,0.6000774293457221,0.399922570654278,
times_square,2610440242,Citibank,40.7617558,-73.9825123,finance,385.1,30125.0,residential,1.0,79.6,444.7,309.4,155.1,0.5601294645038897,0.09910210102141,
times_square,266170732,The Blue Bar,40.7560836,-73.9824341,food_drink,385.4,9221.0,residential,1.0,29.9,48.3,177.4,98.0,,,
times_square,2178743034,Starbucks,40.757236,-73.9891169,food_drink,385.6,40200.0,primary,4.0,84.3,236.9,201.6,153.5,0.0,1.0,
times_square,266143307,Aldo,40.7561723,-73.9879309,retail,385.8,2234.0,primary,4.0,38.9,280.7,126.3,153.1,0.0,1.0,
times_square,3573482095,Birdland Jazz Club,40.7590063,-73.9896838,food_drink,386.3,23525.0,residential,1.0,91.0,187.8,125.9,134.6,0.0,1.0,
times_square,2610440264,Citibank,40.7617657,-73.9825061,finance,386.4,30125.0,residential,1.0,78.4,443.5,308.3,156.2,0.5601294645038897,0.09910210102141,
times_square,6615272809,Pret A Manger,40.7563383,-73.9819829,food_drink,387.4,4067.0,secondary,1.0,76.4,21.5,206.3,51.2,0.0,1.0,
times_square,7093921932,Yama Ramen,40.7581457,-73.9806079,food_drink,387.5,2090.0,residential,1.0,74.1,244.6,404.4,181.8,0.6000558191459671,0.3999441808540329,
times_square,3447488963,Champs,40.755881,-73.9874036,retail,387.7,27156.0,secondary,3.0,24.7,237.5,137.3,181.7,0.0,1.0,
times_square,1740694092,McDonald's,40.762234,-73.98375,food_drink,387.8,21275.0,residential,1.0,47.3,363.0,246.5,184.7,0.0,0.2620289284660041,
times_square,6308440585,Christmas New York,40.7621209,-73.9833324,retail,387.9,33266.0,residential,2.0,41.4,397.4,261.8,188.8,0.0,0.203643485249929,
times_square,4799733303,Pebble Bar,40.7592111,-73.9804982,food_drink,389.1,1650.0,secondary,1.0,22.9,358.0,466.3,205.0,0.0,1.0,
times_square,4231956390,PRETZEL,40.7575116,-73.9893437,food_drink,389.3,17574.0,secondary,4.0,69.3,207.0,167.6,178.4,0.0,0.0023043478260869,
times_square,6615272822,Starbucks,40.7570592,-73.9811663,food_drink,389.5,11850.0,secondary,1.0,99.0,115.8,298.1,54.4,0.0,0.1634319315044001,
times_square,5083430022,Big bus information desk at madame Tussauds,40.7564587,-73.9884226,retail,389.9,54060.0,primary,4.0,62.4,325.6,138.4,124.0,0.0,1.0,
times_square,7093921931,On The Rock,40.7582037,-73.9805635,retail,389.9,2090.0,residential,1.0,75.1,252.1,411.1,189.2,0.6000558191459671,0.3999441808540329,
times_square,4058593772,High Rise,40.7581479,-73.989628,retail,390.4,6000.0,unclassified,,53.2,169.0,114.8,167.2,0.0,1.0,
times_square,4708892893,Five Guys,40.7571061,-73.9890903,food_drink,390.8,40200.0,primary,4.0,88.4,245.6,208.0,140.8,0.0,1.0,
times_square,3067940118,Sosa Borella,40.7623757,-73.9858109,food_drink,391.1,1732.0,secondary,3.0,21.9,251.1,202.2,218.4,0.0,1.0,
times_square,4330787300,Frisson Espresso,40.7608908,-73.9889333,food_drink,391.5,2771.0,residential,1.0,168.2,213.5,53.0,71.1,0.8407517309594461,0.1592482690405539,
times_square,2717578856,Gemological Institute of America,40.7574915,-73.9808385,office_professional,391.6,2111.0,residential,1.0,101.5,171.3,350.1,109.3,0.0,1.0,
times_square,9501915452,Dunkin',40.7593578,-73.9804732,food_drink,393.0,1650.0,secondary,1.0,21.5,374.1,459.5,197.0,0.0,1.0,
times_square,9699194096,Chick-fil-A,40.7578856,-73.9895835,food_drink,394.1,10201.0,unclassified,,60.9,175.9,128.6,187.8,0.0,1.0,
times_square,7006780985,Cinnabon,40.7574504,-73.9893771,food_drink,394.7,17574.0,secondary,4.0,65.5,207.0,169.5,171.2,0.0,0.0023043478260869,
times_square,7006781085,,40.7574417,-73.989378,food_drink,395.1,17574.0,secondary,4.0,65.1,207.3,170.1,170.2,0.0,0.0023043478260869,
times_square,2709702328,JD Sports,40.7554639,-73.9863047,retail,395.3,19800.0,residential,1.0,3.6,191.4,162.7,120.5,0.0,0.1613870241339937,
times_square,3246839597,Beer Culture,40.759564,-73.9897134,food_drink,395.5,1757.0,secondary,1.0,129.3,222.7,165.8,147.2,0.6285942492012779,0.371405750798722,
times_square,7093921930,Pig'n'Whistle,40.7581616,-73.9805063,food_drink,395.5,2259.0,residential,1.0,81.2,250.0,412.4,187.4,0.6001028013364174,0.3998971986635826,
times_square,13703645670,Headshot Specialist,40.755694,-73.9830492,personal_care,396.1,48199.0,secondary,4.0,33.1,104.7,132.0,145.5,0.0,1.0,
times_square,13281497564,Pulperia,40.7602775,-73.9894412,food_drink,396.4,2008.0,secondary,1.0,146.4,271.6,131.5,130.5,1.0,0.0,
times_square,265338414,Belvedere Hotel,40.7617006,-73.9880156,hospitality,396.6,21250.0,residential,1.0,87.0,184.0,56.5,115.5,,,
times_square,2610440244,Loft,40.7555911,-73.9868627,retail,396.8,22448.0,secondary,3.0,23.6,200.4,167.9,148.9,0.0,1.0,
times_square,13025371401,Five Below,40.7571762,-73.9892363,retail,397.6,40200.0,primary,4.0,74.9,231.1,198.5,144.1,0.0,1.0,
times_square,591988954,Dave & Buster's,40.7565216,-73.9886418,food_drink,398.7,54060.0,primary,4.0,68.1,312.7,142.2,112.0,0.0,1.0,
times_square,6615272828,Xi'an Famous Foods,40.7562816,-73.9818582,food_drink,399.2,1958.0,secondary,1.0,80.5,13.1,201.2,50.7,0.75,0.25,
times_square,3932353663,Le Bernardin,40.7613945,-73.981691,food_drink,399.2,80333.0,residential,1.0,127.0,464.7,288.1,129.2,0.0,1.0,
times_square,11335080026,Avra Rockefeller Center,40.7603719,-73.9807662,food_drink,400.0,82340.0,secondary,2.0,78.0,477.0,354.9,137.5,0.0,1.0,
times_square,5452269321,Wine&Liquor,40.7624638,-73.9857467,retail,400.0,1732.0,secondary,3.0,25.7,244.0,192.7,224.4,0.0,1.0,
times_square,1706057512,Bank of America,40.7553098,-73.9848042,finance,400.0,87863.0,primary,5.0,16.3,240.4,86.2,62.5,0.0,1.0,
times_square,2716231113,Villa Fresh Italian Kitchen,40.7572061,-73.9893098,food_drink,401.5,40200.0,primary,4.0,68.4,224.1,191.7,145.7,0.0,1.0,
times_square,5762582555,Iridium Jazz Club,40.7622424,-73.9832858,food_drink,401.8,33266.0,tertiary,2.0,27.8,391.6,249.1,202.4,0.0,0.203643485249929,
times_square,4454392489,Gyu-Kaku,40.7590854,-73.9898663,food_drink,402.0,23525.0,residential,1.0,108.6,179.2,118.6,119.8,0.0,1.0,
times_square,266170533,The Algonquin Hotel Times Square Autograph Collection,40.7559404,-73.982349,hospitality,402.5,9221.0,residential,1.0,26.0,47.4,162.2,105.1,,,
times_square,12847527227,Hilton,40.7566419,-73.9888386,hospitality,402.7,54060.0,primary,4.0,84.1,291.5,155.0,108.3,0.0,1.0,
times_square,4893055722,Delis 48,40.7581221,-73.9804241,food_drink,403.2,2259.0,residential,1.0,89.3,249.5,415.7,187.1,0.6001028013364174,0.3998971986635826,
times_square,11918781631,Le Rivage,40.7602653,-73.9895344,food_drink,403.2,2010.0,secondary,1.0,139.6,272.3,138.1,132.6,0.7505175983436853,0.2494824016563147,
times_square,591988959,Applebee's,40.7565781,-73.9887779,food_drink,403.3,54060.0,primary,4.0,76.0,299.8,147.9,107.0,0.0,1.0,
times_square,13577410520,7-Eleven,40.7577599,-73.9896478,retail,403.5,10201.0,secondary,4.0,51.9,173.9,130.8,193.2,0.0,1.0,
times_square,2611782762,TD Bank,40.7555256,-73.9833268,finance,403.8,48199.0,residential,1.0,49.0,122.0,118.1,121.9,0.0,1.0,
times_square,7093921955,Studio Optix,40.7591739,-73.9803072,health,404.8,107766.0,secondary,1.0,38.9,359.6,451.1,194.7,0.0,1.0,
times_square,2610440255,The Manhattan at Times Square Hotel,40.7621727,-73.9829659,hospitality,405.9,33266.0,residential,2.0,45.5,417.4,262.5,206.8,0.0,0.203643485249929,
times_square,7093921948,Café Cello,40.7568104,-73.9811459,food_drink,406.1,2008.0,secondary,1.0,106.5,94.3,272.2,39.7,0.0,1.0,
times_square,5651033398,Change Money,40.7566453,-73.9888966,finance,406.3,6863.0,primary,4.0,85.8,287.3,155.5,105.3,0.0,1.0,
times_square,11027927522,Millennial Plastic Surgery,40.7561904,-73.9818638,health,406.3,4016.0,secondary,1.0,74.8,3.0,191.0,60.2,0.0,1.0,
times_square,9049424120,The Blue Dog Cookhouse & Bar,40.7623492,-73.9867012,food_drink,406.6,58241.0,secondary,2.0,54.6,238.1,187.9,244.2,0.0,1.0,
times_square,11579645407,Danny's Hair Salon & Spa,40.7567585,-73.9811795,personal_care,407.1,2008.0,secondary,1.0,105.9,88.0,265.9,35.4,0.0,1.0,
times_square,12322937601,Taam Tov,40.7576737,-73.9805449,food_drink,407.2,2510.0,residential,1.0,110.8,201.6,379.7,140.4,0.0,1.0,
times_square,9853378374,Famous Amadeus,40.762535,-73.9857038,food_drink,407.4,15058.0,secondary,3.0,20.2,238.2,185.0,229.8,0.9542815168829236,0.0457184831170763,
times_square,13510417470,Urban Appraisals New York,40.7564038,-73.981553,office_professional,407.8,1883.0,secondary,1.0,104.2,37.7,219.2,32.0,0.0,1.0,
times_square,3822494062,Miss Nellie's,40.7591136,-73.9899354,food_drink,408.0,23525.0,residential,1.0,112.4,176.2,116.3,114.4,0.0,1.0,
times_square,2710031782,Churrascaria Plataforma,40.7620192,-73.987651,food_drink,408.0,2510.0,secondary,1.0,57.8,192.5,100.5,156.2,1.0,0.0,
times_square,13287358562,Manhattan Gastroenterology – Midtown Manhattan,40.7561643,-73.9818704,health,408.1,4016.0,secondary,1.0,72.9,0.0,188.1,63.1,0.0,1.0,
times_square,7380145287,NYC TV Mounts,40.7580252,-73.9803925,office_professional,408.3,9539.0,residential,1.0,96.3,241.5,412.1,179.5,0.0,1.0,
times_square,5651033397,NY Gifts,40.7566595,-73.9889409,retail,408.3,6863.0,primary,4.0,85.1,283.4,157.3,104.1,0.0,1.0,
times_square,5213820730,,40.755291,-73.9841665,finance,408.9,87863.0,secondary,4.0,36.9,190.9,91.0,93.7,0.0,1.0,
times_square,266143344,New Amsterdam Theatre,40.7559683,-73.9880353,leisure_entertainment,409.1,19250.0,unclassified,,46.5,262.6,102.9,142.0,0.0,1.0,
times_square,11953904893,"Dr. Fred E. Grapel, D.D.S. (Dentist)",40.757989,-73.980389,health,409.5,9539.0,residential,1.0,98.5,238.2,410.2,176.3,0.0,1.0,
times_square,6621617758,Michail's barber shop,40.7564087,-73.9815199,personal_care,409.5,1883.0,secondary,1.0,105.6,40.1,220.4,31.8,0.0,1.0,
times_square,6612404174,Little Italy Pizza,40.7563955,-73.9815322,food_drink,409.7,1883.0,secondary,1.0,106.1,38.4,218.8,33.1,0.0,1.0,
times_square,11933299269,Little Italy Pizza,40.7576681,-73.9896928,food_drink,410.4,6351.0,secondary,4.0,43.7,173.4,133.7,192.9,0.0,1.0,
times_square,586476446,Madame Tussauds New York,40.7562117,-73.9884505,leisure_entertainment,411.1,10109.0,unclassified,,35.2,301.9,111.2,111.4,0.0,1.0,
times_square,10577354390,IT'SUGAR,40.7566964,-73.9890246,food_drink,411.5,6863.0,primary,4.0,79.3,275.3,162.1,103.2,0.0,1.0,
times_square,6797561785,Winter Garden Theatre,40.7625759,-73.9856852,leisure_entertainment,411.7,15058.0,secondary,3.0,17.8,234.7,180.7,233.2,0.9542815168829236,0.0457184831170763,
times_square,6030389800,Robusta Espresso Bar,40.7572238,-73.9807255,food_drink,412.9,24000.0,residential,1.0,125.4,152.2,327.6,93.9,0.0,1.0,
times_square,265302168,The Knickerbocker Hotel,40.755243,-73.9860271,hospitality,414.1,19800.0,primary,5.0,37.4,175.3,154.7,87.3,0.0,0.1613870241339937,
times_square,5859233816,Allen Edmonds,40.7591268,-73.9801923,retail,414.1,107766.0,secondary,1.0,49.9,358.5,442.5,183.8,0.0,1.0,
times_square,5213966921,FedEx,40.7554679,-73.9831832,personal_care,414.4,48199.0,residential,1.0,54.8,109.1,131.8,118.2,0.0,1.0,
times_square,7047049185,St. Cloud Rooftop Bar,40.7552396,-73.9860413,food_drink,414.7,19800.0,primary,5.0,36.9,174.5,155.9,88.1,0.0,0.1613870241339937,
times_square,266170538,City Club Hotel,40.7559358,-73.9821093,hospitality,414.8,4502.0,residential,1.0,45.4,32.4,161.1,94.6,,,
times_square,5620855721,DB Bistro Moderne,40.755845,-73.9822708,food_drink,414.9,4502.0,residential,1.0,31.2,49.0,151.2,110.1,,,
times_square,1706038616,Gregory Coffee,40.7557338,-73.9824831,food_drink,415.4,48199.0,residential,1.0,19.7,66.3,141.1,130.3,0.0,1.0,
times_square,277956176,Hilton Garden Inn New York/Times Square Central,40.7551889,-73.9856621,hospitality,415.4,7173.0,primary,5.0,55.6,184.2,135.3,59.4,0.0,0.1045675438481589,
times_square,7093921927,Kitchen Paradise,40.7580685,-73.9802871,food_drink,415.8,9539.0,residential,1.0,102.3,250.2,422.2,186.6,0.0,1.0,
times_square,4443479889,Ted's Montana Grill,40.7607731,-73.9808203,food_drink,416.3,82340.0,residential,1.0,100.0,520.1,313.8,140.5,0.0,1.0,
times_square,1487472478,Capital Grille at Time-Life,40.7607113,-73.9807687,food_drink,416.7,82340.0,residential,1.0,96.2,514.0,318.9,142.6,0.0,1.0,
times_square,5371812658,LS Mens Clothing,40.7564652,-73.981334,retail,417.0,5649.0,secondary,1.0,112.2,56.2,230.8,33.0,0.0,1.0,
times_square,12875327346,Qollateral - Luxury Collateral Loan & Financing Firm,40.7572088,-73.9806792,finance,417.1,24000.0,residential,1.0,129.6,153.5,327.5,96.0,0.0,1.0,
times_square,4494829289,Starbucks,40.7622096,-73.9874605,food_drink,418.3,2510.0,secondary,1.0,54.6,200.4,126.0,179.9,1.0,0.0,
times_square,1162840391,IGT Jewelry Shopping Mall,40.7572806,-73.9806094,retail,418.9,8033.0,residential,1.0,129.9,163.4,337.1,105.5,0.0,1.0,
times_square,2610440248,Pink Taco,40.7554443,-73.987112,food_drink,420.0,22448.0,residential,,37.8,185.5,144.1,131.3,0.0,1.0,
times_square,4549080327,BOOKOFF New York,40.7563465,-73.9814238,retail,420.1,5649.0,secondary,1.0,115.6,42.7,216.0,40.7,0.0,1.0,
times_square,1426311638,Red Lobster,40.7556031,-73.987571,food_drink,421.6,27156.0,unclassified,,47.5,211.0,111.0,154.2,0.0,1.0,
times_square,288448678,TownePlace Suites,40.7588128,-73.9901114,hospitality,422.2,8435.0,residential,1.0,91.3,145.8,83.9,100.3,,,
times_square,13638108902,Saar Indian Restaurant,40.7626964,-73.9848623,food_drink,422.6,8284.0,residential,1.0,64.3,261.1,187.9,226.6,0.9793251736685412,0.0206748263314588,
times_square,10793024892,Mr. Sun,40.7580402,-73.9802119,food_drink,422.7,9539.0,residential,1.0,109.3,251.0,425.9,181.5,0.0,1.0,
times_square,5982234085,NBC,40.7593542,-73.9801173,retail,422.7,1650.0,secondary,1.0,37.9,384.2,432.3,188.8,0.0,1.0,
times_square,13781030757,FDNY Fire Zone,40.7591258,-73.9800884,retail,422.9,107766.0,secondary,1.0,58.0,361.9,433.9,175.6,0.0,1.0,
times_square,12637253323,Angelina Bakery 7 Times Square,40.7553162,-73.9868015,food_drink,423.5,22448.0,residential,,25.2,169.8,168.8,119.6,0.0,1.0,
times_square,1413358691,Hotel Scherman,40.7603627,-73.9897469,hospitality,423.8,3575.0,secondary,1.0,118.9,260.9,140.2,125.4,0.0,0.2376030900929115,
times_square,1122816861,,40.7552268,-73.9864498,retail,424.0,11368.0,residential,1.0,29.8,163.1,185.6,118.0,0.0,1.0,
times_square,7093921954,Pineider,40.7590762,-73.9800709,retail,424.0,107766.0,secondary,1.0,61.6,357.5,433.6,172.2,0.0,1.0,
times_square,11190216069,Setra New York,40.7576696,-73.9803334,retail,424.1,6878.0,residential,1.0,123.5,211.6,386.1,151.9,0.0,1.0,
times_square,266143298,AMC Empire 25,40.7567058,-73.9892591,leisure_entertainment,426.9,6863.0,primary,4.0,61.1,259.1,166.5,94.3,0.0,1.0,
times_square,9611990778,Sake Bar Hagi,40.7627414,-73.9849799,food_drink,427.3,8284.0,residential,1.0,53.3,250.9,179.0,233.0,0.9793251736685412,0.0206748263314588,
times_square,11675219101,Carmen's Kitchen,40.7568938,-73.9807722,food_drink,427.4,2008.0,secondary,1.0,134.5,123.0,292.2,72.5,0.0,1.0,
times_square,5213820731,The Counter,40.7552841,-73.9868258,food_drink,427.5,22448.0,residential,,21.4,166.2,166.6,115.7,0.0,1.0,
times_square,4151701793,Sushi of Gari,40.7606902,-73.9895916,food_drink,427.5,2008.0,secondary,1.0,124.0,224.9,104.9,86.9,0.6666666666666666,0.3333333333333333,
times_square,6008979885,St Kilda Coffee,40.7589838,-73.9901759,food_drink,427.6,4418.0,residential,1.0,88.7,151.4,91.6,93.1,0.8385360602798708,0.1614639397201291,
times_square,11207266999,New You Laser,40.7569386,-73.9807187,personal_care,428.7,2008.0,secondary,1.0,138.0,129.7,298.6,78.4,0.0,1.0,
times_square,11675219100,Beyond Bespole Tailor Shop,40.7569129,-73.9807375,personal_care,428.8,2008.0,secondary,1.0,137.0,126.6,295.3,75.9,0.0,1.0,
times_square,2610440265,Chase,40.7621069,-73.9822562,finance,429.6,80333.0,residential,1.0,38.0,400.6,269.2,194.3,0.0,1.0,
times_square,5425463232,Ootoya,40.7553036,-73.9869647,food_drink,429.6,22448.0,residential,,25.5,168.7,155.0,116.1,0.0,1.0,
times_square,13067936661,inerro,40.7624706,-73.983143,food_drink,429.9,33266.0,residential,2.0,13.7,385.6,226.7,230.4,0.0,0.203643485249929,
times_square,7093921947,2 Bros. Pizza,40.7568805,-73.9807404,food_drink,430.4,2008.0,secondary,1.0,137.4,124.1,292.0,74.6,0.0,1.0,
times_square,2610440240,Chase,40.7621145,-73.9822506,finance,430.5,5600.0,residential,1.0,37.2,399.7,268.4,195.1,0.0,1.0,
times_square,266170752,Iroquois New York Hotel,40.7558522,-73.9819336,hospitality,431.3,7100.0,residential,1.0,59.6,35.1,153.0,97.6,0.0,0.0659848234905971,
times_square,5891289418,McDonald's,40.757554,-73.989917,food_drink,432.4,6035.0,primary,2.0,21.6,160.8,128.3,181.0,0.0,1.0,
times_square,6308405188,Foot Locker,40.7551246,-73.9863365,retail,432.5,11368.0,residential,1.0,39.7,154.2,183.6,105.0,0.0,1.0,
times_square,3067940109,McHale's Pub,40.7627917,-73.9850724,food_drink,432.7,2209.0,residential,1.0,44.1,241.7,170.6,239.9,0.4257586705202312,0.5742413294797688,
times_square,2717543579,Piq,40.759611,-73.9800426,retail,433.2,1650.0,secondary,2.0,9.6,413.0,423.2,199.1,0.0,1.0,
times_square,7093921926,Sean's Bar and Kitchen,40.7579901,-73.9800977,food_drink,433.3,4820.0,residential,1.0,120.4,252.0,426.7,174.2,0.0,1.0,
times_square,2717543393,Saturdays Football,40.7590246,-73.9799527,retail,433.8,107766.0,secondary,1.0,73.1,356.7,425.1,160.9,0.0,1.0,
times_square,12548036252,Smash House,40.7575147,-73.9802829,food_drink,434.0,2310.0,residential,1.0,138.7,201.1,372.1,143.3,0.0,1.0,
times_square,2717543618,Pret A Manger,40.7621496,-73.98224,food_drink,434.3,5600.0,residential,1.0,33.3,395.7,265.5,199.1,0.0,1.0,
times_square,4472637172,Jenny's Engraving & Co.,40.7576139,-73.9802272,retail,434.6,2310.0,residential,1.0,134.3,212.5,384.1,154.0,0.0,1.0,
times_square,11674339848,Akdeniz,40.7568615,-73.9806953,food_drink,434.8,2008.0,secondary,1.0,141.5,125.7,291.6,77.7,0.0,1.0,
times_square,12745101154,Madison Treasures,40.7623358,-73.9826318,retail,434.9,5600.0,residential,2.0,27.5,389.3,254.4,220.2,0.0,1.0,
times_square,13709991501,Don Antonio,40.7626392,-73.9866549,food_drink,435.9,1925.0,secondary,2.0,68.7,206.3,184.1,262.4,0.4891410682840931,0.5108589317159069,
times_square,2709906280,Swing46,40.7606664,-73.989737,leisure_entertainment,437.2,3916.0,secondary,1.0,112.0,227.2,115.9,93.0,0.5912743972445464,0.4087256027554535,
times_square,4402180596,Duane Reade,40.7626458,-73.9834959,health,437.9,21275.0,tertiary,2.0,23.5,350.1,202.2,235.1,0.0,0.2620289284660041,
times_square,2709702247,Pandora,40.7549667,-73.9848273,retail,438.0,56781.0,primary,5.0,25.9,213.7,123.9,32.5,0.0,1.0,
times_square,5599496976,Bibble & Sip,40.7628613,-73.985265,food_drink,440.7,2000.0,residential,1.0,26.4,225.6,157.4,251.1,0.8213434969032872,0.1786565030967127,
times_square,11674339847,Mala Project,40.7568355,-73.9806333,food_drink,440.7,2008.0,secondary,1.0,147.3,128.2,291.3,82.2,0.8001662971175166,0.1998337028824833,
times_square,6615272829,Valerie,40.7562438,-73.9812159,food_drink,440.8,8158.0,secondary,1.0,127.2,55.8,211.1,58.8,0.0,1.0,
times_square,266170763,Sofitel,40.7559258,-73.981634,hospitality,441.1,15816.0,secondary,1.0,85.1,33.2,166.1,85.1,,,
times_square,13360795105,Shake Shack,40.7549317,-73.9852834,food_drink,441.5,14246.0,primary,5.0,55.8,182.1,140.1,16.7,0.0,1.0,
times_square,5377775121,Tumi,40.7589818,-73.9798508,retail,442.2,107766.0,secondary,1.0,81.3,356.5,417.8,151.2,0.0,1.0,
times_square,1706037451,Forty Four,40.7555936,-73.982172,food_drink,442.7,13850.0,residential,1.0,49.7,36.9,122.9,131.4,0.0,1.0,
times_square,7093921943,Subway,40.7566345,-73.9807599,food_drink,443.9,4020.0,secondary,1.0,143.8,107.2,266.5,70.2,0.0,1.0,
times_square,11675219102,Red Ruby Nails & Spa,40.7568339,-73.9805494,personal_care,446.9,1975.0,secondary,1.0,143.4,133.9,294.3,89.1,0.6998535871156661,0.3001464128843338,
times_square,7093921945,Nino's 46,40.7568086,-73.9805692,food_drink,446.9,1975.0,secondary,1.0,143.5,130.9,291.1,87.0,0.6998535871156661,0.3001464128843338,
times_square,2860089441,Schwarz Travel & Storage,40.7565881,-73.9807533,leisure_entertainment,447.4,4020.0,secondary,1.0,146.4,105.2,262.2,71.4,0.0,1.0,
times_square,2717355355,M Social Hotel New York Times Square,40.7627592,-73.9835908,hospitality,447.6,6500.0,residential,1.0,38.3,336.3,188.8,230.7,0.0,1.0,
times_square,3215276727,Bank of America,40.7628801,-73.9859058,finance,447.7,4017.0,residential,1.0,22.5,196.2,145.9,271.8,0.7556403128838322,0.2443596871161678,
times_square,10244555146,Julio Jewelry Manufacturers Inc,40.7565037,-73.9808238,retail,448.0,4020.0,secondary,1.0,145.3,95.9,251.1,67.8,0.0,1.0,
times_square,6132778185,classic watch inc suite 17,40.7572519,-73.9802443,retail,448.2,8033.0,residential,1.0,153.8,182.7,347.4,129.4,0.0,1.0,
times_square,11872704825,Valbella at the Park,40.7548664,-73.985372,food_drink,449.1,14246.0,residential,1.0,65.9,171.7,150.0,18.9,0.0,1.0,
times_square,12917458454,Lolita,40.7562131,-73.9811182,food_drink,449.2,8158.0,secondary,1.0,133.9,63.6,211.2,66.3,0.0,1.0,
times_square,2709702138,Bryant Park Wines,40.754876,-73.9846196,retail,449.3,56781.0,primary,5.0,34.8,218.6,131.7,45.9,0.0,1.0,
times_square,2949598875,Bank of America,40.7629376,-73.9853606,finance,449.5,2000.0,residential,1.0,18.1,214.0,146.7,261.4,0.8213434969032872,0.1786565030967127,
times_square,5424133927,Microsoft Technology Center,40.7567716,-73.9896414,office_professional,449.8,37854.0,primary,4.0,39.6,230.1,183.5,93.5,0.0,1.0,
times_square,2717543476,Gallerie Saint Gui,40.7595169,-73.9798221,retail,449.8,1650.0,secondary,2.0,28.9,410.8,405.5,178.0,0.0,1.0,
times_square,7093921944,Via Brasil,40.7566081,-73.9806982,food_drink,449.9,4020.0,secondary,1.0,144.5,110.4,266.3,75.6,0.0,1.0,
times_square,266170761,Royalton New York,40.7554052,-73.9823932,hospitality,450.5,10041.0,residential,1.0,55.2,42.2,103.7,145.2,,,
times_square,266170669,Wu Liang Ye,40.7577997,-73.9799504,food_drink,450.7,2510.0,residential,1.0,141.0,243.4,412.9,171.5,0.0,1.0,
times_square,2717355374,Dunkin',40.7629479,-73.985404,food_drink,450.8,2000.0,residential,1.0,14.7,210.9,144.5,263.5,0.8213434969032872,0.1786565030967127,
times_square,7093921953,La Maison du Chocolat,40.758938,-73.9797471,food_drink,450.9,107766.0,secondary,1.0,88.4,356.5,410.5,141.4,0.0,1.0,
times_square,10151666949,Carnegie Pizza,40.755372,-73.9877527,food_drink,451.5,7275.0,unclassified,,75.4,192.3,89.6,135.1,0.0,1.0,
times_square,4144668733,Bank of America,40.762903,-73.985999,finance,451.5,4017.0,residential,1.0,27.8,190.7,143.6,277.5,0.7556403128838322,0.2443596871161678,
times_square,5026582327,Becco,40.7605173,-73.9900277,food_drink,452.3,1682.0,secondary,1.0,90.9,244.9,145.4,118.5,0.4713351288957291,0.5286648711042709,
times_square,4278330892,Gallaghers Steakhouse,40.7628531,-73.9838317,food_drink,452.4,6500.0,residential,1.0,59.9,313.7,177.7,227.0,0.0,1.0,
times_square,3246839605,Ootoya,40.7548801,-73.9859787,food_drink,453.1,2468.0,residential,1.0,73.5,141.0,178.5,69.5,0.0,1.0,
times_square,7093921925,Five Guys,40.7578848,-73.9798864,food_drink,453.4,2510.0,residential,1.0,141.4,254.0,423.8,162.4,0.0,1.0,
times_square,6615272815,Mitr Thai,40.7567769,-73.9804939,food_drink,454.1,2600.0,secondary,1.0,136.3,134.5,291.0,92.8,0.3446453407510431,0.6553546592489569,
times_square,11126165013,Barking Dog,40.7624184,-73.9878403,food_drink,454.2,35370.0,secondary,1.0,94.1,163.8,121.2,166.4,0.0,1.0,
times_square,5982231987,Top of the Rock Shop,40.7592667,-73.9797041,retail,456.3,107766.0,secondary,2.0,56.7,390.3,399.3,153.9,0.0,1.0,
times_square,6615272823,Manhattan,40.756182,-73.9810387,food_drink,456.5,5025.0,secondary,1.0,139.5,70.1,211.0,73.1,0.0,1.0,
times_square,6611254406,Club Quarter Hôtel,40.7559916,-73.9812639,hospitality,457.1,6025.0,secondary,1.0,116.8,54.6,183.7,82.4,,,
times_square,10158132117,Yard House,40.7551463,-73.9873113,food_drink,457.1,18225.0,residential,,39.6,156.2,126.2,99.8,0.0,1.0,
times_square,3574404393,Alamo,40.7591117,-73.9905291,leisure_entertainment,457.9,19815.0,residential,1.0,67.1,138.6,86.3,65.0,0.0,1.0,
times_square,368043739,Association of the Bar of the City of New York,40.7555187,-73.9819926,office_professional,458.1,13850.0,residential,1.0,66.8,22.0,115.6,134.6,0.0,1.0,
times_square,5978510504,Roma Pizza,40.7630158,-73.9853514,food_drink,458.1,2000.0,secondary,5.0,21.9,207.6,138.7,269.6,0.8213434969032872,0.1786565030967127,
times_square,6223911885,Victor’s Café,40.7629409,-73.984028,food_drink,458.3,4518.0,residential,1.0,78.8,294.6,169.2,224.6,0.7863856451153518,0.2136143548846482,
times_square,2717223355,I Love NY Gifts,40.7552899,-73.9877307,retail,458.5,7275.0,secondary,3.0,77.6,183.2,90.5,126.0,0.0,1.0,
times_square,9315946320,Bucherer,40.7548045,-73.9844463,retail,458.7,56781.0,primary,5.0,32.0,222.3,139.7,56.7,0.0,1.0,
times_square,266155266,Neil Simon Theater,40.7630106,-73.9845246,leisure_entertainment,459.6,12350.0,residential,1.0,83.6,256.7,171.9,239.2,0.0,1.0,
times_square,9094620024,Dolly Varden,40.7629436,-73.986239,food_drink,459.7,4017.0,residential,1.0,44.2,179.6,141.8,291.1,0.7556403128838322,0.2443596871161678,
times_square,1948123002,Lucky Cheng's,40.7629935,-73.9842271,leisure_entertainment,461.1,4016.0,residential,1.0,95.7,277.6,166.3,227.2,0.0,1.0,
times_square,2610440247,Rosie O'Grady's Saloon,40.7625486,-73.9824969,food_drink,461.2,5600.0,residential,2.0,10.1,363.0,237.6,243.1,0.0,1.0,
times_square,266143301,Equity Point,40.7554097,-73.9880764,hospitality,462.0,2469.0,unclassified,,70.2,208.4,63.8,150.2,0.0,0.1824943781352707,
times_square,5224940635,Thai Kitchen,40.7593699,-73.9905606,food_drink,462.9,2510.0,residential,1.0,84.6,159.5,112.3,74.6,0.8341453301544521,0.1658546698455478,
times_square,13731188445,Dunkin',40.7576543,-73.990345,food_drink,463.0,32637.0,primary,2.0,22.2,123.7,97.6,167.2,0.9219248188566422,0.0780751811433577,
times_square,282065776,Hilton Garden Inn,40.7564589,-73.9806445,hospitality,463.2,6025.0,secondary,1.0,132.1,108.3,254.0,83.7,0.0,0.0161545668960615,
times_square,11872731412,Shake Shack,40.7547339,-73.9854024,food_drink,463.9,14246.0,residential,1.0,76.7,159.8,164.3,22.5,0.0,1.0,
times_square,13151596906,Chipotle,40.7630699,-73.9853223,food_drink,464.0,6000.0,secondary,5.0,27.5,204.4,133.9,274.8,0.8315440627333831,0.1684559372666168,
times_square,266143337,Nederlander Theatre,40.7554972,-73.9883023,leisure_entertainment,464.7,10961.0,unclassified,,51.7,226.7,50.5,128.9,0.0,1.0,
times_square,5026600021,Lattanzi,40.7605821,-73.9901543,food_drink,465.0,1682.0,secondary,1.0,78.7,239.0,149.9,118.0,0.6540697674418605,0.3459302325581395,
times_square,2717543399,Louis Martin Jewelers,40.7594298,-73.979618,retail,465.5,107766.0,secondary,2.0,48.3,409.7,389.5,158.6,0.0,1.0,
times_square,10800150639,Carrot Express,40.7547138,-73.9855296,food_drink,466.9,14246.0,residential,1.0,86.5,150.4,171.3,33.3,0.0,1.0,
times_square,11872590937,Paris Baguette,40.7548345,-73.9864878,food_drink,466.9,13550.0,residential,1.0,41.7,119.8,200.4,81.5,0.0,1.0,
times_square,13731188444,Aldi,40.7576749,-73.9904029,retail,467.0,2510.0,primary,2.0,19.7,118.3,93.1,162.9,0.8261436488101705,0.1738563511898294,
times_square,2611782750,Brooks Brothers,40.7602642,-73.9798528,retail,467.3,1650.0,residential,1.0,60.1,486.5,353.3,154.3,0.0,1.0,
times_square,12917522707,Chazz Palminteri,40.756518,-73.9805238,food_drink,467.7,6025.0,secondary,1.0,126.8,120.0,264.8,91.8,0.0,0.0161545668960615,
times_square,6672695800,National,40.7591482,-73.9906592,leisure_entertainment,469.0,19815.0,residential,1.0,60.9,134.7,86.3,55.7,0.0,1.0,
times_square,266143309,Hampton,40.7556116,-73.9886087,hospitality,470.2,8295.0,unclassified,,33.4,251.9,43.6,100.2,0.0,0.1493897477624084,
times_square,9283609979,Dig,40.763131,-73.985279,food_drink,470.7,1600.0,secondary,5.0,34.8,201.6,129.1,271.9,0.6893910379165071,0.3106089620834929,
times_square,11872686042,Equinox,40.7546747,-73.9854692,leisure_entertainment,470.9,14246.0,residential,1.0,85.3,151.3,172.7,30.5,0.0,1.0,
times_square,6615272827,Chipotle,40.7561133,-73.9808717,food_drink,472.1,10041.0,secondary,1.0,130.0,84.3,211.2,88.2,0.0,1.0,
times_square,2717543381,Godiva Chocolatier,40.7593907,-73.9795264,food_drink,472.6,107766.0,secondary,2.0,57.0,409.5,382.4,149.8,0.0,1.0,
times_square,8808753152,Bright Smile Design Dental,40.7554476,-73.9818089,health,473.5,5038.0,residential,1.0,84.1,14.9,110.9,139.4,,,
times_square,7047004787,Hold Fast,40.7606026,-73.9902545,food_drink,473.6,1682.0,secondary,1.0,70.0,238.1,155.8,121.3,0.6476683937823834,0.3523316062176165,
times_square,7093921942,Pizza Foto,40.7566965,-73.9802852,food_drink,473.8,2092.0,secondary,1.0,116.6,146.0,292.3,109.9,0.0,1.0,
times_square,11399352956,New York Gifts & Luggage,40.755166,-73.9878258,retail,474.5,5070.0,secondary,3.0,64.2,174.4,82.9,117.7,0.0,1.0,
times_square,265320185,Ramada,40.7595565,-73.9906766,hospitality,475.3,5021.0,residential,1.0,94.1,172.2,130.3,81.9,,,
times_square,5357529822,Carlo’s Bakery,40.7570813,-73.9902127,food_drink,475.8,6035.0,secondary,3.0,22.5,171.6,159.5,134.2,0.0,1.0,
times_square,10552881680,Delphinium Home,40.7614441,-73.9896457,retail,476.0,2710.0,residential,1.0,141.9,140.9,83.5,25.3,0.8383791336748952,0.1616208663251048,
times_square,10616997403,Bluestone Lane,40.7564887,-73.9897742,food_drink,476.3,37854.0,unclassified,,12.7,245.4,160.3,62.0,0.0,1.0,
times_square,265338415,New World Stages,40.7627597,-73.987573,leisure_entertainment,477.1,35370.0,secondary,2.0,108.9,183.2,165.3,208.6,0.0,1.0,
times_square,4665840837,Whole Foods Market,40.7546279,-73.9845292,retail,477.5,56781.0,secondary,5.0,30.2,206.4,159.1,44.4,0.0,1.0,
times_square,3577940193,Russian Samovar Restaurant and Piano Bar,40.7631875,-73.9847037,food_drink,477.9,2092.0,residential,1.0,59.6,232.6,150.4,233.2,0.4008012209080503,0.5991987790919496,
times_square,6795570587,Aldo Sohn Wine Bar,40.762047,-73.981225,retail,478.5,16318.0,residential,1.0,59.7,386.8,207.2,211.7,0.7862096000216278,0.2137903999783722,
times_square,7093921924,Starbucks,40.757792,-73.9796085,food_drink,478.7,2058.0,residential,1.0,129.5,262.8,426.0,147.3,0.4024390243902439,0.5975609756097561,
times_square,8757557471,Mastro's,40.7613876,-73.980456,food_drink,479.1,80333.0,residential,1.0,94.4,457.4,239.2,178.5,0.0,1.0,
times_square,6799000856,Sports Injury & Pain Management Clinic of New York,40.7553333,-73.9819007,health,479.5,5038.0,residential,1.0,85.9,0.0,96.7,153.1,,,
times_square,4257973595,Audio46 Headphones,40.7566724,-73.9802211,retail,479.8,2092.0,secondary,1.0,110.5,150.0,293.1,115.3,0.6666666666666666,0.3333333333333333,
times_square,7093921941,Ippudo,40.7564517,-73.9804099,food_drink,479.8,1883.0,secondary,1.0,114.7,127.1,263.8,102.9,0.8,0.2,
times_square,13036069556,CBD Boutique,40.7551123,-73.9878674,retail,481.4,5070.0,secondary,3.0,57.3,171.0,80.3,114.6,0.0,1.0,
times_square,6067214131,FedEx Office,40.7546126,-73.9859274,personal_care,481.8,3950.0,residential,1.0,94.0,119.1,198.8,68.6,,,
times_square,3246839619,810 Deli & Cafe,40.7627228,-73.9823758,food_drink,483.0,5600.0,secondary,4.0,16.4,341.1,225.7,230.5,0.0,1.0,
times_square,4144668734,Santander,40.7632469,-73.9851823,finance,483.4,1600.0,secondary,5.0,49.7,197.9,121.2,257.3,0.6893910379165071,0.3106089620834929,
times_square,2717543063,Daniela Diamonds,40.757098,-73.9798733,retail,483.7,2008.0,residential,1.0,121.3,197.7,348.7,151.5,0.0,1.0,
times_square,8791561183,Saatchi & Saatchi Wellness,40.7630679,-73.9834068,office_professional,484.9,23900.0,residential,1.0,63.0,331.5,157.0,193.6,0.0,1.0,
times_square,5638109021,Kaufman's Army & Navy,40.7577938,-73.9906694,retail,485.0,2510.0,primary,2.0,25.6,92.2,71.7,141.6,0.8261436488101705,0.1738563511898294,
times_square,6321504681,St. Pat's Bar & Grill,40.7564278,-73.9803554,food_drink,485.0,2008.0,secondary,1.0,109.4,130.9,264.3,108.0,0.0,1.0,
times_square,4709047193,NYC Gifts,40.7560383,-73.980752,retail,485.2,10041.0,secondary,1.0,117.2,95.2,209.6,101.1,0.0,1.0,
times_square,6421845186,Joe's Pizza,40.754762,-73.9869439,food_drink,485.6,3250.0,residential,1.0,37.6,108.6,165.7,56.8,0.0,1.0,
times_square,5648309722,Grayline Tours,40.7572719,-73.9904498,office_professional,485.6,6035.0,primary,2.0,28.0,142.5,132.6,161.1,0.0,1.0,
times_square,4848258121,Four Four South Village,40.7606384,-73.9903951,food_drink,486.1,1116.0,secondary,1.0,57.6,236.7,164.2,126.2,0.7327586206896551,0.2672413793103448,
times_square,5429181224,Ritz Bar Lounge,40.7608904,-73.9902567,food_drink,487.5,504.0,secondary,1.0,69.5,206.8,142.3,98.7,0.0,1.0,
times_square,10891282152,Sashka Jewelry,40.7572551,-73.9797265,retail,488.2,2774.0,residential,1.0,130.5,217.5,370.1,169.1,0.0,1.0,
times_square,11579645406,El Russo & Co.,40.7570776,-73.9798222,retail,488.5,10041.0,residential,1.0,117.0,200.2,349.2,155.0,0.0,1.0,
times_square,11399352958,Paris Baguette,40.7549094,-73.9875294,food_drink,488.6,1185.0,secondary,3.0,55.0,137.7,113.7,80.6,0.0,1.0,
times_square,12469111159,Angelina Bakery Times Square,40.7631327,-73.9835283,food_drink,488.9,23900.0,residential,1.0,70.6,319.1,148.1,189.3,0.0,1.0,
times_square,2676979144,Nintendo NEW YORK,40.757976,-73.9794142,retail,489.8,2058.0,residential,1.0,115.3,288.8,424.9,122.5,0.4024390243902439,0.5975609756097561,
times_square,7093921940,,40.7566373,-73.9801013,leisure_entertainment,490.5,6719.0,secondary,1.0,99.8,158.0,295.7,125.5,0.0,1.0,
times_square,4144668735,Sogo Nail & Spa,40.7633145,-73.9851333,personal_care,490.9,11350.0,secondary,5.0,43.9,195.8,117.0,249.2,0.9700035209602236,0.0299964790397763,
times_square,2717542962,Ultimate Diamond,40.7572436,-73.9796967,retail,491.0,9790.0,residential,1.0,128.3,218.9,370.4,170.9,0.0,1.0,
times_square,5891429762,DD Soup Dumpling & Fuji Hibachi,40.757824,-73.9907567,food_drink,491.2,2510.0,primary,2.0,31.3,84.2,66.4,135.9,0.8152776268608063,0.1847223731391937,
times_square,6052834893,Jasmine's,40.7609547,-73.9902635,food_drink,491.3,1350.0,secondary,1.0,70.9,199.9,140.5,94.9,0.7153075822603719,0.284692417739628,
times_square,5433333128,Pavé,40.7564172,-73.9802703,food_drink,491.6,2209.0,secondary,1.0,102.8,137.7,267.5,115.2,0.6923076923076923,0.3076923076923077,
times_square,4760672500,Breads Bakery,40.7545627,-73.9839414,food_drink,492.1,20887.0,primary,5.0,18.6,192.1,149.6,13.4,0.0,1.0,
times_square,7047037587,STK Midtown,40.7548374,-73.9827653,food_drink,492.7,67875.0,residential,1.0,72.8,91.3,63.6,77.2,0.0,1.0,
times_square,13576389913,AperiBar,40.7544954,-73.9857539,food_drink,492.9,3950.0,residential,1.0,113.5,120.1,201.7,61.5,,,
times_square,2717543040,Eric Originals & Antiques LTD,40.757057,-73.9797761,retail,493.0,10041.0,residential,1.0,113.0,202.4,349.6,158.1,0.0,1.0,
times_square,1428036650,Wafels and Dinges,40.7545385,-73.9840441,food_drink,493.1,20887.0,secondary,5.0,13.2,201.0,158.1,20.2,0.0,1.0,
times_square,9049400009,Little Tony & Igor Be Good Barbers,40.7624396,-73.9886559,personal_care,494.6,2510.0,secondary,1.0,59.3,96.6,103.2,124.5,0.8451938943894389,0.154806105610561,
times_square,265331289,Washington Jefferson Hotel,40.7631641,-73.9867845,hospitality,494.9,12150.0,residential,1.0,95.7,147.3,136.5,287.9,,,
times_square,266170799,Sheraton New York Times Square Hotel,40.7623843,-73.981442,hospitality,495.0,60775.0,secondary,2.0,58.5,352.6,195.3,238.7,0.0,0.0382032403856244,
times_square,4232157900,Eddie's Shoe Repair,40.7592504,-73.9792398,personal_care,495.1,107766.0,secondary,2.0,85.8,408.5,361.1,121.3,0.0,1.0,
times_square,4871184823,Cute Souvenirs,40.7546742,-73.9869625,retail,495.4,3250.0,residential,1.0,47.5,99.0,167.7,47.0,0.0,1.0,
times_square,13720174189,Mati Jewelry,40.7553335,-73.981566,retail,495.9,5038.0,residential,1.0,108.1,28.2,106.8,150.8,,,
times_square,10215141157,Santander,40.7605607,-73.9796319,finance,496.2,89775.0,residential,1.0,27.8,524.0,319.6,120.8,0.0,1.0,
times_square,2717223348,Margaritaville,40.7550162,-73.9880032,food_drink,496.3,9876.0,residential,,43.5,168.3,72.2,113.4,0.0,0.1023284275071127,
times_square,266143348,Margaritaville Resort Times Square,40.755061,-73.9881236,hospitality,497.1,9876.0,residential,,47.1,178.4,60.9,124.0,0.0,0.1023284275071127,
times_square,5796732654,Jay's hallmark shop,40.7568639,-73.9903587,retail,497.4,37854.0,unclassified,1.0,45.1,182.2,178.2,116.6,0.0,1.0,
times_square,12646644779,Metropolitan Commercial Bank,40.7563918,-73.9802081,finance,497.6,4418.0,secondary,1.0,96.9,142.3,268.5,121.0,0.0,1.0,
times_square,6615272820,Wine Wisdom,40.7566017,-73.9800287,retail,497.8,6719.0,secondary,1.0,92.6,162.6,296.2,131.9,0.0,1.0,
times_square,2717543023,Ultimate Diamond,40.7570337,-73.979724,retail,498.1,10041.0,residential,1.0,108.5,205.0,350.0,161.7,0.0,1.0,
times_square,6821294085,Kiehl's,40.7613901,-73.9900377,retail,499.6,1894.0,residential,1.0,111.6,148.7,115.7,58.7,0.749512816669165,0.250487183330835,
times_square,6561269443,Bird & Branch,40.7602787,-73.9907472,food_drink,499.7,2510.0,secondary,1.0,59.0,244.2,209.2,151.3,0.8318903925359334,0.1681096074640665,
times_square,5017258825,Wasabi,40.7548184,-73.9875946,food_drink,500.1,3555.0,residential,3.0,44.6,131.2,112.5,74.7,0.0,1.0,
times_square,281324351,Romer Hell's Kitchen,40.7633646,-73.9858176,hospitality,500.1,26340.0,residential,1.0,54.5,153.0,92.3,292.6,0.0,0.3409176694397053,
times_square,2717542874,The Exchange,40.7572053,-73.9795994,retail,500.2,9790.0,residential,1.0,121.1,223.6,371.6,177.2,0.0,1.0,
times_square,6615272824,The Dawson,40.7559902,-73.9805626,food_drink,500.7,2510.0,secondary,1.0,100.6,111.8,214.9,116.4,0.0,1.0,
times_square,266170808,Radio City Music Hall,40.7598175,-73.9792746,leisure_entertainment,501.1,184764.0,secondary,2.0,66.7,461.3,357.6,159.9,0.0,1.0,
times_square,2610440241,Chase,40.7628715,-73.9822575,finance,502.3,26525.0,secondary,2.0,10.5,321.9,217.6,216.4,0.0,1.0,
times_square,2610440267,Chase,40.7628755,-73.9822669,finance,502.3,26525.0,secondary,2.0,11.3,321.9,216.7,215.8,0.0,1.0,
times_square,4503855910,Bain & Company,40.7547044,-73.9828698,office_professional,502.9,67875.0,primary,5.0,58.1,107.5,63.8,60.3,0.0,1.0,
times_square,266155276,August Wilson Theatre,40.763373,-73.9841933,leisure_entertainment,503.2,13125.0,residential,1.0,73.3,257.1,124.8,190.2,0.0,1.0,
times_square,12165674101,NYC Megamart Gifts and Luggage,40.7549473,-73.9880176,retail,503.6,9876.0,residential,,35.8,162.9,74.2,108.7,0.0,0.1023284275071127,
times_square,2717543001,SYU Jewelry Plaza,40.7570103,-73.9796645,retail,503.7,10041.0,residential,1.0,103.8,208.3,350.9,166.0,0.0,1.0,
times_square,458501298,LUMA Hotel Times Square,40.7543894,-73.985774,hospitality,504.8,3950.0,residential,1.0,105.3,111.4,212.8,70.3,,,
times_square,4144668738,T-Mobile,40.7634312,-73.9855135,retail,505.0,26340.0,secondary,5.0,54.7,163.7,90.7,267.1,0.0,0.3409176694397053,
times_square,5603040024,Top Notch Beauty & Health Spa,40.7565917,-73.9799331,personal_care,505.2,1230.0,secondary,1.0,85.1,170.0,300.3,140.0,0.8,0.2,
times_square,12988501252,El Rancho Burritos,40.7602977,-73.9908094,food_drink,505.4,2510.0,secondary,1.0,54.9,244.7,210.1,151.8,0.8318903925359334,0.1681096074640665,
times_square,6064442885,Addictive NYC,40.7565516,-73.9799617,food_drink,505.5,1230.0,secondary,1.0,84.9,166.4,295.3,138.0,0.8,0.2,
times_square,6575702088,FAO Schwarz,40.7587018,-73.9790943,retail,506.3,12050.0,secondary,1.0,112.1,366.5,366.0,81.2,,,
times_square,11061450505,Etcetera Etcetera,40.7593594,-73.9910873,food_drink,506.9,2510.0,residential,1.0,65.1,138.2,107.0,45.2,0.0,1.0,
times_square,11872544748,Marc Joseph Salon & Spa,40.754697,-73.9874413,personal_care,507.3,1975.0,residential,3.0,51.5,113.2,130.1,56.3,0.0,1.0,
times_square,11872859723,Sweetgreen,40.7545974,-73.9830893,food_drink,507.5,67875.0,primary,5.0,36.5,129.3,78.6,39.5,0.0,1.0,
times_square,8939922342,Bank of America,40.763082,-73.9826826,finance,507.6,26525.0,secondary,2.0,22.0,318.6,178.2,187.4,0.0,1.0,
times_square,5317406322,Sophie’s,40.7559483,-73.9804969,food_drink,508.0,2510.0,secondary,1.0,93.5,118.2,214.9,123.6,0.0,1.0,
times_square,5891324852,Burger King,40.7579166,-73.9909951,food_drink,508.4,2500.0,primary,2.0,51.2,61.6,54.3,120.7,0.5652378709373528,0.4347621290626472,
times_square,13346761049,MomenTea Kitchen,40.7551548,-73.98857,food_drink,508.8,2469.0,residential,,68.4,210.9,22.2,129.9,0.0,1.0,
times_square,12742152178,Upstairs Wine,40.75681,-73.9904783,retail,509.1,37854.0,unclassified,1.0,41.5,181.5,181.5,116.6,0.0,1.0,
times_square,11872565844,The Independent,40.7546757,-73.9874489,food_drink,509.7,1975.0,residential,3.0,50.4,111.4,130.7,54.6,0.0,1.0,
times_square,6068987529,99¢ Fresh Pizza,40.7546586,-73.9874094,food_drink,510.2,1975.0,residential,3.0,53.4,108.2,134.5,51.3,0.0,1.0,
times_square,13346761055,Printers Alley,40.7552067,-73.9886987,food_drink,510.4,4937.0,residential,,78.9,222.6,10.0,118.0,0.0,1.0,
times_square,2717355367,Russian Vodka Room,40.7634867,-73.9847984,food_drink,510.6,22915.0,residential,1.0,26.1,206.8,121.4,215.4,0.8946354362437277,0.1053645637562723,
times_square,7403521595,JMC Custom Framing,40.7613592,-73.9902213,retail,510.7,1875.0,residential,1.0,97.8,155.4,131.0,74.4,0.75,0.25,
times_square,8806749198,Elegant NYC,40.75716,-73.9794856,retail,510.9,9790.0,residential,1.0,113.2,229.4,373.3,184.8,0.0,1.0,
times_square,4311338891,Emporium Brasil Restaurant,40.7565246,-73.9798908,food_drink,512.1,3406.0,secondary,1.0,78.2,171.5,296.8,144.3,,,
times_square,6615272810,Yum yum too,40.7609971,-73.9905173,food_drink,512.4,1393.0,secondary,1.0,53.3,201.1,160.0,110.7,0.7246376811594203,0.2753623188405797,
times_square,2717223251,Domino's,40.7552792,-73.9888751,food_drink,513.0,4937.0,residential,,74.4,238.8,6.9,101.8,0.0,1.0,
times_square,7055777987,Lindys,40.762939,-73.9821435,food_drink,513.5,26525.0,secondary,2.0,17.6,311.1,217.5,211.7,0.0,1.0,
times_square,4922311228,Amy's Bread,40.7612491,-73.9903504,food_drink,513.6,2150.0,primary,4.0,81.4,170.1,142.0,87.5,0.8069164265129684,0.1930835734870317,
times_square,13576389914,General Society of Mechanics & Tradesmen of the City of New York,40.7552264,-73.9814017,leisure_entertainment,513.7,10042.0,residential,1.0,122.1,43.7,104.4,163.5,0.0,1.0,
times_square,10216105386,,40.7586434,-73.9790075,finance,513.9,12050.0,secondary,1.0,102.4,366.2,361.6,72.7,,,
times_square,10693951251,McNally Jackson,40.7578543,-73.9791545,retail,514.1,7431.0,residential,1.0,96.1,296.0,413.2,112.8,0.9467992207966682,0.0532007792033317,
times_square,11872851264,Joe & The Juice,40.7545541,-73.9830108,food_drink,514.3,67875.0,primary,5.0,41.8,127.5,71.4,40.0,0.0,1.0,
times_square,7194269382,3 Aces Barber Shop,40.7610859,-73.9904822,personal_care,514.4,1942.0,primary,4.0,61.3,190.8,155.1,103.9,0.7910447761194029,0.208955223880597,
times_square,4709047192,Antalia,40.7559182,-73.9804278,food_drink,514.6,4167.0,secondary,1.0,86.8,124.6,216.3,130.2,0.0,1.0,
times_square,2716126852,iPizzaNY,40.7608145,-73.990664,food_drink,514.7,1260.0,secondary,1.0,34.2,224.4,177.4,131.6,0.7162162162162162,0.2837837837837837,
times_square,2709892524,Schmackary's,40.7601492,-73.9909867,food_drink,514.9,2510.0,secondary,1.0,67.4,224.8,194.2,132.3,0.8318903925359334,0.1681096074640665,
times_square,12177578856,9th Avenue Saloon,40.7607594,-73.9906983,food_drink,514.9,1260.0,secondary,1.0,30.6,231.2,182.2,137.3,0.7547169811320755,0.2452830188679245,
times_square,8659721020,Jacks,40.755335,-73.9890048,retail,515.1,22713.0,residential,,73.2,251.0,19.5,89.7,0.0,1.0,
times_square,6422254286,,40.7607166,-73.9794734,food_drink,515.2,89775.0,secondary,4.0,17.1,540.9,302.4,101.1,0.0,1.0,
times_square,12177578862,Nan Xiang Express Dumplings,40.7607118,-73.9907302,food_drink,515.2,1260.0,primary,4.0,28.3,237.1,186.6,142.5,0.7547169811320755,0.2452830188679245,
times_square,2717542956,Butterflied Chicken,40.7557612,-73.9805909,food_drink,515.8,2111.0,secondary,1.0,93.8,116.7,194.1,133.2,0.8964522642053648,0.1035477357946351,
times_square,4652798789,Lubian Chinese Grilled Fish,40.7606163,-73.9908082,food_drink,517.3,4042.0,primary,4.0,26.2,249.3,196.7,154.1,0.8004604758250192,0.1995395241749808,
times_square,13422112415,Manhattan Hardware & Housewares,40.7617607,-73.9899579,retail,518.3,1348.0,primary,4.0,129.8,107.0,114.5,62.1,0.71869918699187,0.2813008130081301,
times_square,11027006805,DD Soup Dumpling & Hibachi,40.7618183,-73.9898998,food_drink,518.4,1348.0,primary,4.0,121.8,99.9,111.6,62.2,0.71869918699187,0.2813008130081301,
times_square,4699675791,Schnippers Quality Kitchen,40.7562997,-73.9902122,food_drink,518.7,79000.0,secondary,4.0,19.6,241.6,166.6,58.1,0.0,1.0,
times_square,3447527993,J.Crew,40.7590891,-73.9789454,retail,518.8,12050.0,secondary,2.0,116.4,408.0,340.9,90.9,,,
times_square,11225778137,Tasty Hand Pulled Noodles II,40.7605534,-73.9908603,food_drink,518.8,2500.0,primary,4.0,27.9,257.4,203.6,161.8,0.834983498349835,0.165016501650165,
times_square,9784340519,Partners Coffee,40.7624715,-73.9811369,food_drink,518.8,60775.0,secondary,2.0,32.5,339.1,169.1,257.4,0.0,0.0382032403856244,
times_square,10891282153,New York Kimchi,40.7576124,-73.9791762,food_drink,519.1,7431.0,residential,1.0,89.2,278.3,429.2,133.3,0.9467992207966682,0.0532007792033317,
times_square,12177578858,Matto Espresso,40.7605195,-73.9908845,food_drink,519.4,2500.0,primary,4.0,29.9,261.7,206.5,165.8,0.8624862486248625,0.1375137513751375,
times_square,3573482105,The Brazen Tavern,40.7594293,-73.9912351,food_drink,520.1,2510.0,residential,1.0,62.1,142.1,116.6,50.1,0.8182326621923938,0.1817673378076062,
times_square,2717542599,Bouchon Bakery,40.7580432,-73.9790248,food_drink,520.5,6376.0,residential,1.0,82.1,318.0,392.8,91.0,0.0,1.0,
times_square,2176936529,KD 46,40.7562938,-73.9799651,food_drink,520.6,6427.0,secondary,1.0,73.9,161.1,273.4,143.8,0.0,1.0,
times_square,5852302806,CVS Pharmacy,40.7543579,-73.9866072,health,520.8,30200.0,residential,,67.1,66.0,209.8,42.4,0.0,1.0,
